[{"id":"curated/central-park-atlanta-ga","name":"Central Park","city":"Atlanta, GA","lat":33.7683022,"lng":-84.3763755,"source":"curated","iconic":true,"indoor":false,"access":"public","signatureCity":true,"signatureScore":222},{"id":"curated/zilker-park-courts-austin-tx","name":"Zilker Park Courts","city":"Austin, TX","lat":30.2688116,"lng":-97.7684506,"source":"curated","iconic":true,"indoor":false,"access":"public","signatureCity":true,"signatureScore":216},{"id":"curated/malcolm-x-park-boston-ma","name":"Malcolm X Park","city":"Boston, MA","lat":42.3214854,"lng":-71.0883768,"source":"curated","iconic":true,"indoor":false,"access":"public","signatureCity":true,"signatureScore":216},{"id":"curated/st-john-s-recreation-center-brooklyn-ny","name":"St. John's Recreation Center","city":"Brooklyn, NY","lat":40.6738837,"lng":-73.9348989,"source":"curated","iconic":true,"indoor":true,"access":"public","signatureCity":true,"signatureScore":220},{"id":"curated/seward-park-chicago-il","name":"Seward Park","city":"Chicago, IL","lat":41.9024107,"lng":-87.6387996,"source":"curated","iconic":true,"indoor":false,"access":"public","signatureCity":true,"signatureScore":216},{"id":"curated/kiest-park-dallas-tx","name":"Kiest Park","city":"Dallas, TX","lat":32.7100292,"lng":-96.8528037,"source":"curated","iconic":true,"indoor":false,"access":"public","signatureCity":true,"signatureScore":216},{"id":"curated/rude-recreation-center-denver-co","name":"Rude Recreation Center","city":"Denver, CO","lat":39.73638,"lng":-105.0231254,"source":"curated","iconic":true,"indoor":true,"access":"public","signatureCity":true,"signatureScore":244},{"id":"site-3895","name":"Emancipation Park","lat":29.7360241,"lng":-95.3646568,"city":"Houston, TX","source":"osm+curated","numCourts":1,"lit":true,"indoor":false,"access":"public","density":0,"score":2.2,"iconic":true,"signatureCity":true,"signatureScore":225},{"id":"curated/poinsettia-recreation-center-los-angeles-ca","name":"Poinsettia Recreation Center","city":"Los Angeles, CA","lat":34.0881916,"lng":-118.3496059,"source":"curated","iconic":true,"indoor":false,"access":"public","signatureCity":true,"signatureScore":220},{"id":"curated/jose-marti-park-miami-fl","name":"Jose Marti Park","city":"Miami, FL","lat":25.7701469,"lng":-80.2004286,"source":"curated","iconic":true,"indoor":false,"access":"public","signatureCity":true,"signatureScore":216},{"id":"curated/holcombe-rucker-park-new-york-ny","name":"Holcombe Rucker Park","city":"New York, NY","lat":40.8293029,"lng":-73.9361098,"source":"curated","iconic":true,"indoor":false,"access":"public","signatureCity":true,"signatureScore":296},{"id":"curated/mosswood-park-oakland-ca","name":"Mosswood Park","city":"Oakland, CA","lat":37.8239748,"lng":-122.2604817,"source":"curated","iconic":true,"indoor":false,"access":"public","signatureCity":true,"signatureScore":314},{"id":"curated/tarken-recreation-center-philadelphia-pa","name":"Tarken Recreation Center","city":"Philadelphia, PA","lat":40.0407103,"lng":-75.082599,"source":"curated","iconic":true,"indoor":true,"access":"public","signatureCity":true,"signatureScore":220},{"id":"curated/irving-park-courts-portland-or","name":"Irving Park Courts","city":"Portland, OR","lat":45.5461346,"lng":-122.6579501,"source":"curated","iconic":true,"indoor":false,"access":"public","signatureCity":true,"signatureScore":219},{"id":"curated/bay-club-redwood-shores-redwood-city-ca","name":"Bay Club Redwood Shores","city":"Redwood City, CA","lat":37.5197852,"lng":-122.2512581,"source":"curated","iconic":true,"indoor":true,"access":"members","signatureCity":true,"signatureScore":274},{"id":"curated/pacific-beach-recreation-center-san-diego-ca","name":"Pacific Beach Recreation Center","city":"San Diego, CA","lat":32.8014488,"lng":-117.2449798,"source":"curated","iconic":true,"indoor":true,"access":"public","signatureCity":true,"signatureScore":224},{"id":"curated/kezar-pavilion-san-francisco-ca","name":"Kezar Pavilion","city":"San Francisco, CA","lat":37.7675098,"lng":-122.4539144,"source":"curated","iconic":true,"indoor":true,"access":"public","signatureCity":true,"signatureScore":292},{"id":"curated/bay-club-santa-clara-santa-clara-ca","name":"Bay Club Santa Clara","city":"Santa Clara, CA","lat":37.3762403,"lng":-121.9859687,"source":"curated","iconic":true,"indoor":true,"access":"members","signatureCity":true,"signatureScore":274},{"id":"curated/cal-anderson-park-seattle-wa","name":"Cal Anderson Park","city":"Seattle, WA","lat":47.6170377,"lng":-122.3191692,"source":"curated","iconic":true,"indoor":false,"access":"public","signatureCity":true,"signatureScore":296},{"id":"site-1308","name":"Barry Farm Recreation Center","lat":38.8601017,"lng":-76.9960234,"city":"Washington, DC","source":"osm+curated","numCourts":1,"lit":false,"indoor":true,"access":"public","density":1,"score":1.7,"iconic":true,"signatureCity":true,"signatureScore":226},{"id":"site-5994","name":"Millenium Park Courts","lat":35.0640558,"lng":-106.5402769,"city":"Albuquerque, NM","source":"osm","numCourts":1,"lit":false,"indoor":false,"access":"","density":4,"score":2.7,"signatureCity":true,"signatureScore":43},{"id":"site-2211","name":"Southside Community Park Courts","lat":35.2087547,"lng":-80.8738853,"city":"Charlotte, NC","source":"osm","numCourts":1,"lit":false,"indoor":false,"access":"","density":1,"score":1.7,"signatureCity":true,"signatureScore":28},{"id":"site-3195","name":"Jefferson Park Courts","lat":41.4556921,"lng":-81.7812934,"city":"Cleveland, OH","source":"osm","numCourts":1,"lit":false,"indoor":false,"access":"","density":0,"score":1.4,"signatureCity":true,"signatureScore":22},{"id":"site-3465","name":"Groveport Veteran's Park Courts","lat":39.8527473,"lng":-82.8880685,"city":"Columbus, OH","source":"osm","numCourts":1,"lit":false,"indoor":false,"access":"","density":0,"score":1.4,"signatureCity":true,"signatureScore":37},{"id":"site-3095","name":"Dondero Park Courts","lat":42.4783614,"lng":-83.1275233,"city":"Detroit, MI","source":"osm","numCourts":1,"lit":false,"indoor":false,"access":"","density":0,"score":1.4,"signatureCity":true,"signatureScore":37},{"id":"site-7214","name":"Hinton Park Courts","lat":36.7150217,"lng":-119.8038669,"city":"Fresno, CA","source":"osm","numCourts":1,"lit":false,"indoor":false,"access":"","density":1,"score":1.7,"signatureCity":true,"signatureScore":22},{"id":"site-2769","name":"Hammond Park Courts","lat":30.3486235,"lng":-81.7233896,"city":"Jacksonville, FL","source":"osm","numCourts":1,"lit":false,"indoor":false,"access":"","density":3,"score":2.4,"signatureCity":true,"signatureScore":31},{"id":"site-3814","name":"Troost Park Courts","lat":39.0725462,"lng":-94.5683945,"city":"Kansas City, MO","source":"osm","numCourts":1,"lit":false,"indoor":false,"access":"","density":2,"score":2.1,"signatureCity":true,"signatureScore":37},{"id":"site-4804","name":"Paseo Verde Park Courts","lat":36.0221004,"lng":-115.0655733,"city":"Las Vegas, NV","source":"osm","numCourts":1,"lit":false,"indoor":false,"access":"","density":3,"score":2.4,"signatureCity":true,"signatureScore":43},{"id":"site-2606","name":"Willie Mae Rowe Park Courts","lat":35.1501315,"lng":-90.1705634,"city":"Memphis, TN","source":"osm","numCourts":1,"lit":false,"indoor":false,"access":"","density":0,"score":1.4,"signatureCity":true,"signatureScore":19},{"id":"site-2503","name":"Rose Park Magnet Middle School Courts","lat":36.1424148,"lng":-86.7826191,"city":"Nashville, TN","source":"osm","numCourts":1,"lit":false,"indoor":false,"access":"","density":0,"score":1.4,"signatureCity":true,"signatureScore":28},{"id":"site-2640","name":"Abramson Science and Technology Charter School Courts","lat":30.0272647,"lng":-89.9746653,"city":"New Orleans, LA","source":"osm","numCourts":1,"lit":false,"indoor":false,"access":"","density":2,"score":1.5,"signatureCity":true,"signatureScore":21},{"id":"site-2","name":"14th Street Y \u2013 Sports Center","lat":40.7314081,"lng":-73.9832397,"city":"Newark, NJ","source":"osm","numCourts":1,"lit":false,"indoor":false,"access":"","density":5,"score":3.1,"signatureCity":true,"signatureScore":61},{"id":"site-1805","name":"Union Park Middle School Courts","lat":28.5709193,"lng":-81.2488082,"city":"Orlando, FL","source":"osm","numCourts":1,"lit":false,"indoor":false,"access":"","density":1,"score":1.7,"signatureCity":true,"signatureScore":28},{"id":"site-1665","name":"Robert Lee Vann Elementary School Courts","lat":40.4490372,"lng":-79.971085,"city":"Pittsburgh, PA","source":"osm","numCourts":1,"lit":false,"indoor":false,"access":"","density":0,"score":0.8,"signatureCity":true,"signatureScore":33},{"id":"site-2377","name":"Davis Drive Park Courts","lat":35.7731239,"lng":-78.8455015,"city":"Raleigh, NC","source":"osm","numCourts":1,"lit":false,"indoor":false,"access":"","density":0,"score":1.4,"signatureCity":true,"signatureScore":28},{"id":"site-6400","name":"White Oak Recreation Center Courts","lat":34.1563729,"lng":-117.456182,"city":"Riverside, CA","source":"osm","numCourts":1,"lit":false,"indoor":false,"access":"private","density":1,"score":0.5,"signatureCity":true,"signatureScore":32},{"id":"site-7106","name":"Emile \"Whitey\" Boisclair Park Courts","lat":38.5484219,"lng":-121.5276308,"city":"Sacramento, CA","source":"osm","numCourts":1,"lit":false,"indoor":false,"access":"","density":1,"score":1.7,"signatureCity":true,"signatureScore":31},{"id":"site-5016","name":"Magna Fitness and Recreation Center","lat":40.7000163,"lng":-112.0925295,"city":"Salt Lake City, UT","source":"osm","numCourts":1,"lit":false,"indoor":false,"access":"","density":1,"score":1.7,"signatureCity":true,"signatureScore":41},{"id":"site-6532","name":"Student Recreation & Fitness Center","lat":34.181299,"lng":-117.3185553,"city":"San Bernardino, CA","source":"osm","numCourts":1,"lit":false,"indoor":false,"access":"","density":1,"score":1.7,"signatureCity":true,"signatureScore":26},{"id":"site-7343","name":"Brown's Park Courts","lat":47.6281701,"lng":-117.23813,"city":"Spokane, WA","source":"osm","numCourts":1,"lit":false,"indoor":false,"access":"","density":2,"score":2.1,"signatureCity":true,"signatureScore":31},{"id":"site-3572","name":"Centreville Park Courts","lat":38.5709416,"lng":-90.113014,"city":"St. Louis, MO","source":"osm","numCourts":1,"lit":false,"indoor":false,"access":"","density":0,"score":1.4,"signatureCity":true,"signatureScore":23},{"id":"site-2125","name":"Perry Havery Senior Park Courts","lat":27.95683055,"lng":-82.45530405,"city":"Tampa, FL","source":"osm","numCourts":2,"lit":false,"indoor":false,"access":"","density":1,"score":2.4,"signatureCity":true,"signatureScore":31},{"id":"site-4580","name":"Navajo Park Courts","lat":32.2663005,"lng":-110.962279,"city":"Tucson, AZ","source":"osm","numCourts":1,"lit":false,"indoor":false,"access":"","density":3,"score":2.4,"signatureCity":true,"signatureScore":58},{"id":"site-4158","name":"Henthorne Park Courts","lat":36.0942828,"lng":-95.9726381,"city":"Tulsa, OK","source":"osm","numCourts":1,"lit":false,"indoor":false,"access":"","density":1,"score":1.7,"signatureCity":true,"signatureScore":22},{"id":"way/191161145","name":"C. L. Rucker Park Courts","lat":36.294657,"lng":-78.6190434,"city":"US","source":"osm","signatureCity":true,"signatureScore":96},{"id":"curated/foster-park-chicago-il","name":"Foster Park","city":"Chicago, IL","lat":41.7412958,"lng":-87.6599818,"source":"curated","iconic":true,"indoor":false,"access":"public"},{"id":"curated/jackson-park-courts-chicago-il","name":"Jackson Park Courts","city":"Chicago, IL","lat":41.7794732,"lng":-87.5838296,"source":"curated","iconic":true,"indoor":false,"access":"public"},{"id":"curated/margate-park-fieldhouse-chicago-il","name":"Margate Park Fieldhouse","city":"Chicago, IL","lat":41.972321,"lng":-87.6499973,"source":"curated","iconic":true,"indoor":true,"access":"public"},{"id":"curated/griffith-park-courts-los-angeles-ca","name":"Griffith Park Courts","city":"Los Angeles, CA","lat":34.1210789,"lng":-118.2937503,"source":"curated","iconic":true,"indoor":false,"access":"public"},{"id":"curated/rancho-cienega-sports-complex-los-angeles-ca","name":"Rancho Cienega Sports Complex","city":"Los Angeles, CA","lat":34.0229782,"lng":-118.3514764,"source":"curated","iconic":true,"indoor":true,"access":"public"},{"id":"curated/moore-park-miami-fl","name":"Moore Park","city":"Miami, FL","lat":25.8110608,"lng":-80.209496,"source":"curated","iconic":true,"indoor":false,"access":"public"},{"id":"curated/chelsea-recreation-center-new-york-ny","name":"Chelsea Recreation Center","city":"New York, NY","lat":40.7482962,"lng":-74.0022197,"source":"curated","iconic":true,"indoor":true,"access":"paid"},{"id":"curated/dyckman-park-new-york-ny","name":"Dyckman Park","city":"New York, NY","lat":40.7398699,"lng":-73.6630255,"source":"curated","iconic":true,"indoor":false,"access":"public"},{"id":"curated/bushrod-park-oakland-ca","name":"Bushrod Park","city":"Oakland, CA","lat":37.846041,"lng":-122.2631819,"source":"curated","iconic":true,"indoor":false,"access":"public"},{"id":"curated/matt-dishman-community-center-portland-or","name":"Matt Dishman Community Center","city":"Portland, OR","lat":45.5421554,"lng":-122.6646678,"source":"curated","iconic":true,"indoor":true,"access":"public"},{"id":"curated/montavilla-community-center-portland-or","name":"Montavilla Community Center","city":"Portland, OR","lat":45.5268034,"lng":-122.5785346,"source":"curated","iconic":true,"indoor":true,"access":"public"},{"id":"site-6682","name":"Hamilton Recreation Center","lat":37.7844817,"lng":-122.4361416,"city":"San Francisco, CA","source":"osm+curated","numCourts":1,"lit":true,"indoor":true,"access":"public","density":5,"score":3.9,"iconic":true},{"id":"curated/mission-recreation-center-san-francisco-ca","name":"Mission Recreation Center","city":"San Francisco, CA","lat":37.7582179,"lng":-122.4128043,"source":"curated","iconic":true,"indoor":true,"access":"public"},{"id":"curated/potrero-hill-recreation-center-san-francisco-ca","name":"Potrero Hill Recreation Center","city":"San Francisco, CA","lat":37.75633,"lng":-122.3969371,"source":"curated","iconic":true,"indoor":true,"access":"public"},{"id":"curated/bitter-lake-community-center-seattle-wa","name":"Bitter Lake Community Center","city":"Seattle, WA","lat":47.7240826,"lng":-122.3486106,"source":"curated","iconic":true,"indoor":true,"access":"public"},{"id":"curated/hiawatha-playfield-seattle-wa","name":"Hiawatha Playfield","city":"Seattle, WA","lat":47.5782471,"lng":-122.38495,"source":"curated","iconic":true,"indoor":false,"access":"public"},{"id":"curated/rainier-community-center-seattle-wa","name":"Rainier Community Center","city":"Seattle, WA","lat":47.5613895,"lng":-122.2841761,"source":"curated","iconic":true,"indoor":true,"access":"public"},{"id":"curated/yesler-community-center-seattle-wa","name":"Yesler Community Center","city":"Seattle, WA","lat":47.6013443,"lng":-122.3203002,"source":"curated","iconic":true,"indoor":true,"access":"public"},{"id":"curated/kelly-miller-recreation-center-washington-dc","name":"Kelly Miller Recreation Center","city":"Washington, DC","lat":38.8928145,"lng":-76.9309252,"source":"curated","iconic":true,"indoor":true,"access":"public"},{"id":"site-6032","name":"Eagle Ranch Apartments South Park Courts","lat":35.1834184,"lng":-106.6710164,"city":"Albuquerque, NM","source":"osm","numCourts":1,"lit":true,"indoor":false,"access":"customers","density":2,"score":2.9},{"id":"site-5997","name":"Basketball Court","lat":35.0613649,"lng":-106.5444415,"city":"Albuquerque, NM","source":"osm","numCourts":1,"lit":false,"indoor":false,"access":"","density":6,"score":2.8},{"id":"site-5991","name":"Basketball Court","lat":35.0939794,"lng":-106.6191843,"city":"Albuquerque, NM","source":"osm","numCourts":1,"lit":true,"indoor":false,"access":"","density":2,"score":2.3},{"id":"site-6031","name":"Eagle Ranch Apartments North Basketball Court","lat":35.183818,"lng":-106.6694823,"city":"Albuquerque, NM","source":"osm","numCourts":1,"lit":true,"indoor":false,"access":"customers","density":2,"score":2.3},{"id":"site-6114","name":"Tiguex Park Courts","lat":35.0972161,"lng":-106.6662597,"city":"Albuquerque, NM","source":"osm","numCourts":1,"lit":true,"indoor":false,"access":"","density":0,"score":2.2},{"id":"site-5993","name":"Basketball Court","lat":35.0609172,"lng":-106.5412185,"city":"Albuquerque, NM","source":"osm","numCourts":1,"lit":false,"indoor":false,"access":"","density":4,"score":2.1},{"id":"site-5995","name":"Basketball Court","lat":35.0608608,"lng":-106.5390387,"city":"Albuquerque, NM","source":"osm","numCourts":1,"lit":false,"indoor":false,"access":"","density":4,"score":2.1},{"id":"site-6113","name":"Basketball Court","lat":35.1328047,"lng":-106.5994062,"city":"Albuquerque, NM","source":"osm","numCourts":1,"lit":false,"indoor":false,"access":"","density":4,"score":2.1},{"id":"site-6145","name":"Don Juan de O\u00f1ate Park Courts","lat":35.1055099,"lng":-106.5049266,"city":"Albuquerque, NM","source":"osm","numCourts":2,"lit":false,"indoor":false,"access":"","density":0,"score":2.1},{"id":"site-6166","name":"East Gym Indoor Pool Courts","lat":35.054319,"lng":-106.5592839,"city":"Albuquerque, NM","source":"osm","numCourts":1,"lit":false,"indoor":false,"access":"","density":2,"score":2.1},{"id":"site-6056","name":"James Monroe Middle School Courts","lat":35.1916839,"lng":-106.7152,"city":"Albuquerque, NM","source":"osm","numCourts":1,"lit":false,"indoor":false,"access":"","density":4,"score":2.1},{"id":"site-6178","name":"Paradise Christian School Courts","lat":35.1937679,"lng":-106.7162108,"city":"Albuquerque, NM","source":"osm","numCourts":1,"lit":false,"indoor":false,"access":"","density":4,"score":2.1},{"id":"site-6013","name":"Phil Chacon Park Courts","lat":35.0666538,"lng":-106.5626001,"city":"Albuquerque, NM","source":"osm","numCourts":1,"lit":false,"indoor":false,"access":"","density":2,"score":2.1},{"id":"site-6006","name":"Shawshaw Park Courts","lat":35.0669471,"lng":-106.5100927,"city":"Albuquerque, NM","source":"osm","numCourts":1,"lit":false,"indoor":false,"access":"","density":2,"score":2.1},{"id":"site-6055","name":"Sunset View Elementary School Courts","lat":35.1909439,"lng":-106.7153129,"city":"Albuquerque, NM","source":"osm","numCourts":1,"lit":false,"indoor":false,"access":"","density":4,"score":2.1},{"id":"site-6057","name":"Sunset View Elementary School Courts","lat":35.1903075,"lng":-106.7148731,"city":"Albuquerque, NM","source":"osm","numCourts":1,"lit":false,"indoor":false,"access":"","density":4,"score":2.1},{"id":"site-6058","name":"Sunset View Elementary School Courts","lat":35.190128,"lng":-106.7163314,"city":"Albuquerque, NM","source":"osm","numCourts":1,"lit":false,"indoor":false,"access":"","density":4,"score":2.1},{"id":"site-5981","name":"Johnson Field Courts","lat":35.0839911,"lng":-106.615344,"city":"Albuquerque, NM","source":"osm","numCourts":1,"lit":false,"indoor":false,"access":"","density":3,"score":1.8},{"id":"site-5960","name":"Sprayground Courts","lat":35.0875285,"lng":-106.6508716,"city":"Albuquerque, NM","source":"osm","numCourts":1,"lit":false,"indoor":false,"access":"","density":3,"score":1.8},{"id":"site-6140","name":"Haynes Park Basketball Court","lat":35.222779,"lng":-106.6616735,"city":"Albuquerque, NM","source":"osm","numCourts":1,"lit":false,"indoor":false,"access":"","density":1,"score":1.7},{"id":"site-5959","name":"Basketball Court","lat":34.9649836,"lng":-106.7273463,"city":"Albuquerque, NM","source":"osm","numCourts":1,"lit":false,"indoor":false,"access":"","density":0,"score":0.8},{"id":"site-1686","name":"Central Park Courts","lat":33.76931926666666,"lng":-84.37605226666668,"city":"Atlanta, GA","source":"osm","numCourts":3,"lit":true,"indoor":false,"access":"yes","density":0,"score":2.9},{"id":"site-1702","name":"Basketball Court","lat":33.7518637,"lng":-84.3554905,"city":"Atlanta, GA","source":"osm","numCourts":1,"lit":true,"indoor":true,"access":"yes","density":0,"score":2.2},{"id":"site-1781","name":"Basketball Court","lat":33.69038116666667,"lng":-84.33583696666668,"city":"Atlanta, GA","source":"osm","numCourts":3,"lit":false,"indoor":false,"access":"","density":2,"score":2.2},{"id":"site-1680","name":"Bessie Branham Park Courts","lat":33.7549186,"lng":-84.3210397,"city":"Atlanta, GA","source":"osm","numCourts":1,"lit":true,"indoor":false,"access":"","density":0,"score":2.2},{"id":"site-1719","name":"Empire Park Courts","lat":33.6676985,"lng":-84.384534,"city":"Atlanta, GA","source":"osm","numCourts":1,"lit":true,"indoor":false,"access":"","density":0,"score":2.2},{"id":"site-1733","name":"Four Corners Park Courts","lat":33.7262689,"lng":-84.3892813,"city":"Atlanta, GA","source":"osm","numCourts":1,"lit":true,"indoor":false,"access":"yes","density":0,"score":2.2},{"id":"site-1727","name":"Rosa L. Burney Park Swimming Pool Courts","lat":33.7401296,"lng":-84.3988801,"city":"Atlanta, GA","source":"osm","numCourts":1,"lit":false,"indoor":false,"access":"","density":2,"score":2.1},{"id":"site-1691","name":"Basketball Court","lat":33.774460899999994,"lng":-84.3933877,"city":"Atlanta, GA","source":"osm","numCourts":2,"lit":false,"indoor":false,"access":"","density":1,"score":1.8},{"id":"site-1721","name":"Chosewood Park Courts","lat":33.7197168,"lng":-84.3743821,"city":"Atlanta, GA","source":"osm","numCourts":1,"lit":false,"indoor":false,"access":"yes","density":1,"score":1.7},{"id":"site-1730","name":"Chosewood Park Courts","lat":33.718717,"lng":-84.3742975,"city":"Atlanta, GA","source":"osm","numCourts":1,"lit":false,"indoor":false,"access":"yes","density":1,"score":1.7},{"id":"site-1747","name":"Ebster Park Courts","lat":33.7725606,"lng":-84.3016166,"city":"Atlanta, GA","source":"osm","numCourts":1,"lit":false,"indoor":false,"access":"","density":1,"score":1.7},{"id":"site-1753","name":"J F Kennedy Park Courts","lat":33.7622512,"lng":-84.4116209,"city":"Atlanta, GA","source":"osm","numCourts":1,"lit":false,"indoor":false,"access":"","density":1,"score":1.7},{"id":"site-1687","name":"Oakhurst Park Courts","lat":33.7609562,"lng":-84.3072399,"city":"Atlanta, GA","source":"osm","numCourts":1,"lit":false,"indoor":false,"access":"","density":1,"score":1.7},{"id":"site-1755","name":"Rodney Cook Sr. Park in Historic Vine City Courts","lat":33.7611374,"lng":-84.4080068,"city":"Atlanta, GA","source":"osm","numCourts":1,"lit":false,"indoor":false,"access":"","density":1,"score":1.7},{"id":"site-1740","name":"Rosa L. Burney Park Courts","lat":33.7410945,"lng":-84.4001684,"city":"Atlanta, GA","source":"osm","numCourts":1,"lit":false,"indoor":false,"access":"","density":1,"score":1.7},{"id":"site-1762","name":"Windsor Street Park Courts","lat":33.73612,"lng":-84.3978965,"city":"Atlanta, GA","source":"osm","numCourts":1,"lit":false,"indoor":false,"access":"","density":1,"score":1.7},{"id":"site-1713","name":"Rose Garden School Courts","lat":33.8866273,"lng":-84.4978583,"city":"Atlanta, GA","source":"osm","numCourts":1,"lit":true,"indoor":false,"access":"","density":0,"score":1.6},{"id":"site-1782","name":"Basketball Court","lat":33.6901548,"lng":-84.3351232,"city":"Atlanta, GA","source":"osm","numCourts":1,"lit":false,"indoor":false,"access":"","density":2,"score":1.5},{"id":"site-1783","name":"Basketball Court","lat":33.6903946,"lng":-84.3366291,"city":"Atlanta, GA","source":"osm","numCourts":1,"lit":false,"indoor":false,"access":"","density":2,"score":1.5},{"id":"site-1703","name":"Hammond Park Courts","lat":33.9175374,"lng":-84.3622384,"city":"Atlanta, GA","source":"osm","numCourts":1,"lit":false,"indoor":false,"access":"yes","density":0,"score":1.4},{"id":"site-1690","name":"Leila Mason Park Courts","lat":33.8011121,"lng":-84.1637451,"city":"Atlanta, GA","source":"osm","numCourts":1,"lit":false,"indoor":false,"access":"","density":0,"score":1.4},{"id":"site-1732","name":"Basketball Court","lat":33.7836622,"lng":-84.1666928,"city":"Atlanta, GA","source":"osm","numCourts":1,"lit":false,"indoor":false,"access":"","density":0,"score":0.8},{"id":"site-1715","name":"Maddox Playground Courts","lat":33.5742843,"lng":-84.311901,"city":"Atlanta, GA","source":"osm","numCourts":1,"lit":false,"indoor":false,"access":"","density":0,"score":0.8},{"id":"site-2237","name":"Stewart Creek High School Courts","lat":35.236521075,"lng":-80.887302125,"city":"Charlotte, NC","source":"osm","numCourts":4,"lit":true,"indoor":false,"access":"","density":0,"score":3.3},{"id":"site-2234","name":"Basketball Court","lat":35.206505,"lng":-80.89236530000001,"city":"Charlotte, NC","source":"osm","numCourts":3,"lit":true,"indoor":false,"access":"","density":2,"score":3},{"id":"site-2236","name":"Basketball Court","lat":35.2061554,"lng":-80.89294745000001,"city":"Charlotte, NC","source":"osm","numCourts":2,"lit":true,"indoor":false,"access":"","density":2,"score":3},{"id":"site-2273","name":"L.C. Coleman Neighborhood Park Courts","lat":35.2578065,"lng":-80.8616458,"city":"Charlotte, NC","source":"osm","numCourts":1,"lit":true,"indoor":false,"access":"","density":1,"score":2.5},{"id":"site-2311","name":"James A. Hartman Gymnasium","lat":35.1701068,"lng":-80.8321562,"city":"Charlotte, NC","source":"osm","numCourts":1,"lit":false,"indoor":false,"access":"","density":3,"score":2.4},{"id":"site-2210","name":"Southside Community Park Courts","lat":35.206716,"lng":-80.8713713,"city":"Charlotte, NC","source":"osm","numCourts":1,"lit":false,"indoor":false,"access":"","density":3,"score":2.4},{"id":"site-2235","name":"Basketball Court","lat":35.2070491,"lng":-80.8930166,"city":"Charlotte, NC","source":"osm","numCourts":1,"lit":true,"indoor":false,"access":"","density":2,"score":2.3},{"id":"site-2276","name":"Crescent Park Basketball","lat":35.2415829,"lng":-81.0238878,"city":"Charlotte, NC","source":"osm","numCourts":1,"lit":true,"indoor":false,"access":"","density":0,"score":2.2},{"id":"site-2225","name":"Tuckaseegee Park Courts","lat":35.2485588,"lng":-80.906868,"city":"Charlotte, NC","source":"osm","numCourts":1,"lit":true,"indoor":false,"access":"","density":0,"score":2.2},{"id":"site-2279","name":"Veterans Park Courts","lat":35.2171246,"lng":-80.8050512,"city":"Charlotte, NC","source":"osm","numCourts":1,"lit":true,"indoor":false,"access":"","density":0,"score":2.2},{"id":"site-2312","name":"Alexander Street Park Courts","lat":35.22697025,"lng":-80.82647635000001,"city":"Charlotte, NC","source":"osm","numCourts":2,"lit":false,"indoor":false,"access":"","density":0,"score":2.1},{"id":"site-2207","name":"Belk Gym","lat":35.079182,"lng":-80.7751118,"city":"Charlotte, NC","source":"osm","numCourts":1,"lit":false,"indoor":false,"access":"","density":2,"score":2.1},{"id":"site-2368","name":"Merry Oaks Park Courts","lat":35.2191915,"lng":-80.78343530000001,"city":"Charlotte, NC","source":"osm","numCourts":2,"lit":false,"indoor":false,"access":"","density":0,"score":2.1},{"id":"site-2265","name":"Sheffield Neighborhood Park Courts","lat":35.2062573,"lng":-80.7691951,"city":"Charlotte, NC","source":"osm","numCourts":1,"lit":false,"indoor":false,"access":"","density":2,"score":2.1},{"id":"site-2266","name":"Sheffield Neighborhood Park Courts","lat":35.2058254,"lng":-80.7673436,"city":"Charlotte, NC","source":"osm","numCourts":1,"lit":false,"indoor":false,"access":"","density":2,"score":2.1},{"id":"site-2284","name":"Springfield Park Courts","lat":35.1601804,"lng":-80.9029195,"city":"Charlotte, NC","source":"osm","numCourts":2,"lit":false,"indoor":false,"access":"","density":0,"score":2.1},{"id":"site-2310","name":"Alexander Graham Middle School Courts","lat":35.1670552,"lng":-80.8318378,"city":"Charlotte, NC","source":"osm","numCourts":1,"lit":false,"indoor":false,"access":"","density":3,"score":1.8},{"id":"site-2309","name":"Selwyn Elementary School Courts","lat":35.167457,"lng":-80.8355835,"city":"Charlotte, NC","source":"osm","numCourts":1,"lit":false,"indoor":false,"access":"","density":3,"score":1.8},{"id":"site-2343","name":"Selwyn Elementary School Courts","lat":35.1685843,"lng":-80.8331101,"city":"Charlotte, NC","source":"osm","numCourts":1,"lit":false,"indoor":false,"access":"","density":3,"score":1.8},{"id":"site-2208","name":"Basketball Court","lat":35.13256705,"lng":-81.0030688,"city":"Charlotte, NC","source":"osm","numCourts":2,"lit":false,"indoor":false,"access":"","density":0,"score":1.5},{"id":"site-2290","name":"Basketball Court","lat":35.4040683,"lng":-80.8708963,"city":"Charlotte, NC","source":"osm","numCourts":1,"lit":false,"indoor":false,"access":"","density":0,"score":0.8},{"id":"site-3243","name":"Pattison Park Courts","lat":41.5281147,"lng":-81.59421090000001,"city":"Cleveland, OH","source":"osm","numCourts":2,"lit":false,"indoor":false,"access":"","density":1,"score":2.4},{"id":"site-3260","name":"Brainard Park Courts","lat":41.5104431,"lng":-81.4790149,"city":"Cleveland, OH","source":"osm","numCourts":1,"lit":true,"indoor":false,"access":"","density":0,"score":2.2},{"id":"site-3266","name":"Madison Park Courts","lat":41.4743327,"lng":-81.7802994,"city":"Cleveland, OH","source":"osm","numCourts":1,"lit":true,"indoor":false,"access":"","density":0,"score":2.2},{"id":"site-3298","name":"Clark Field Park Courts","lat":41.4739183,"lng":-81.6851133,"city":"Cleveland, OH","source":"osm","numCourts":2,"lit":false,"indoor":false,"access":"","density":0,"score":2.1},{"id":"site-3252","name":"Kerruish Park Courts","lat":41.43016025,"lng":-81.56242955,"city":"Cleveland, OH","source":"osm","numCourts":2,"lit":false,"indoor":false,"access":"","density":0,"score":2.1},{"id":"site-3208","name":"Thurgood Marshall Park Courts","lat":41.51103165,"lng":-81.62766959999999,"city":"Cleveland, OH","source":"osm","numCourts":2,"lit":false,"indoor":false,"access":"","density":0,"score":2.1},{"id":"site-3210","name":"Artha Woods Park Courts","lat":41.4909132,"lng":-81.6021241,"city":"Cleveland, OH","source":"osm","numCourts":1,"lit":false,"indoor":false,"access":"","density":1,"score":1.7},{"id":"site-3200","name":"Forest Hill Parkway Courts","lat":41.5370341,"lng":-81.6068473,"city":"Cleveland, OH","source":"osm","numCourts":1,"lit":false,"indoor":false,"access":"","density":1,"score":1.7},{"id":"site-3242","name":"Forest Hills Park Courts","lat":41.5308067,"lng":-81.5975708,"city":"Cleveland, OH","source":"osm","numCourts":1,"lit":false,"indoor":false,"access":"","density":1,"score":1.7},{"id":"site-3245","name":"Lakewood Catholic Academy Courts","lat":41.493928,"lng":-81.7989094,"city":"Cleveland, OH","source":"osm","numCourts":1,"lit":true,"indoor":false,"access":"permissive","density":0,"score":1.6},{"id":"site-3204","name":"North basketball court","lat":41.5121357,"lng":-81.6062072,"city":"Cleveland, OH","source":"osm","numCourts":1,"lit":true,"indoor":false,"access":"permissive","density":0,"score":1.6},{"id":"site-3250","name":"Basketball Court","lat":41.3975277,"lng":-81.8202604,"city":"Cleveland, OH","source":"osm","numCourts":2,"lit":false,"indoor":false,"access":"","density":0,"score":1.5},{"id":"site-3196","name":"Basketball Court","lat":41.47409155,"lng":-81.6085567,"city":"Cleveland, OH","source":"osm","numCourts":2,"lit":false,"indoor":false,"access":"","density":0,"score":1.5},{"id":"site-3228","name":"Basketball Court","lat":41.4755145,"lng":-81.726647,"city":"Cleveland, OH","source":"osm","numCourts":2,"lit":false,"indoor":false,"access":"","density":0,"score":1.5},{"id":"site-3271","name":"Daniel E. Morgan School Courts","lat":41.51644985,"lng":-81.62466785000001,"city":"Cleveland, OH","source":"osm","numCourts":2,"lit":false,"indoor":false,"access":"","density":0,"score":1.5},{"id":"site-3287","name":"American Legion Park Courts","lat":41.3908116,"lng":-81.788287,"city":"Cleveland, OH","source":"osm","numCourts":1,"lit":false,"indoor":false,"access":"","density":0,"score":1.4},{"id":"site-3197","name":"Archmere Park Courts","lat":41.4260591,"lng":-81.7141906,"city":"Cleveland, OH","source":"osm","numCourts":1,"lit":false,"indoor":false,"access":"","density":0,"score":1.4},{"id":"site-3194","name":"Cleveland State University Wolstein Center","lat":41.4992374,"lng":-81.6766485,"city":"Cleveland, OH","source":"osm","numCourts":1,"lit":false,"indoor":false,"access":"","density":0,"score":1.4},{"id":"site-3199","name":"Fairfax Park Courts","lat":41.4943391,"lng":-81.6307608,"city":"Cleveland, OH","source":"osm","numCourts":1,"lit":false,"indoor":false,"access":"","density":0,"score":1.4},{"id":"site-3198","name":"Humphrey Park Playground Courts","lat":41.5771041,"lng":-81.5657465,"city":"Cleveland, OH","source":"osm","numCourts":1,"lit":false,"indoor":false,"access":"","density":0,"score":1.4},{"id":"site-3227","name":"Tri City Park Courts","lat":41.4523463,"lng":-81.8732576,"city":"Cleveland, OH","source":"osm","numCourts":1,"lit":false,"indoor":false,"access":"","density":0,"score":1.4},{"id":"site-3307","name":"John F. Kennedy Elementary School Courts","lat":41.3986932,"lng":-81.5731463,"city":"Cleveland, OH","source":"osm","numCourts":1,"lit":false,"indoor":false,"access":"","density":1,"score":1.1},{"id":"site-3348","name":"Jones Tower Volleyball Courts Courts","lat":40.00566465,"lng":-83.0127449,"city":"Columbus, OH","source":"osm","numCourts":2,"lit":true,"indoor":false,"access":"","density":1,"score":2.6},{"id":"site-3332","name":"Jesse Owens Recreation Center South Courts","lat":39.9951825,"lng":-83.0113752,"city":"Columbus, OH","source":"osm","numCourts":1,"lit":true,"indoor":false,"access":"","density":1,"score":2.5},{"id":"site-3487","name":"Linden Park Courts","lat":40.0172786,"lng":-82.9751002,"city":"Columbus, OH","source":"osm","numCourts":2,"lit":false,"indoor":false,"access":"","density":1,"score":2.4},{"id":"site-3486","name":"Basketball Court","lat":39.8883912,"lng":-82.8916116,"city":"Columbus, OH","source":"osm","numCourts":2,"lit":false,"indoor":false,"access":"","density":2,"score":2.2},{"id":"site-3330","name":"Livingston Park Courts","lat":39.9512886,"lng":-82.9770812,"city":"Columbus, OH","source":"osm","numCourts":1,"lit":true,"indoor":false,"access":"","density":0,"score":2.2},{"id":"site-3424","name":"Barack Park Courts","lat":39.9281868,"lng":-82.9780969,"city":"Columbus, OH","source":"osm","numCourts":1,"lit":false,"indoor":false,"access":"","density":2,"score":2.1},{"id":"site-3346","name":"Brookside Woods Park Courts","lat":40.0981602,"lng":-83.0764047,"city":"Columbus, OH","source":"osm","numCourts":1,"lit":false,"indoor":false,"access":"","density":2,"score":2.1},{"id":"site-3319","name":"Jeffery Park Courts","lat":39.9747311,"lng":-82.9457412,"city":"Columbus, OH","source":"osm","numCourts":1,"lit":false,"indoor":false,"access":"","density":2,"score":2.1},{"id":"site-3391","name":"Lincoln Park Courts","lat":39.9281052,"lng":-82.9810387,"city":"Columbus, OH","source":"osm","numCourts":1,"lit":false,"indoor":false,"access":"","density":2,"score":2.1},{"id":"site-3392","name":"Lincoln Park Courts","lat":39.9287894,"lng":-82.9801492,"city":"Columbus, OH","source":"osm","numCourts":1,"lit":false,"indoor":false,"access":"","density":2,"score":2.1},{"id":"site-3352","name":"Pingree Park Courts","lat":40.0904515,"lng":-83.0095243,"city":"Columbus, OH","source":"osm","numCourts":1,"lit":false,"indoor":false,"access":"","density":2,"score":2.1},{"id":"site-3434","name":"Rhodes Park Courts","lat":39.958391899999995,"lng":-83.0518506,"city":"Columbus, OH","source":"osm","numCourts":2,"lit":false,"indoor":false,"access":"","density":0,"score":2.1},{"id":"site-3440","name":"Basketball Court","lat":40.0560222,"lng":-83.0468222,"city":"Columbus, OH","source":"osm","numCourts":1,"lit":true,"indoor":false,"access":"","density":1,"score":1.9},{"id":"site-3521","name":"Basketball Court","lat":40.1014607,"lng":-82.9546203,"city":"Columbus, OH","source":"osm","numCourts":1,"lit":true,"indoor":false,"access":"yes","density":1,"score":1.9},{"id":"site-3410","name":"Basketball Court","lat":39.9169316,"lng":-83.04999805,"city":"Columbus, OH","source":"osm","numCourts":2,"lit":false,"indoor":false,"access":"","density":1,"score":1.8},{"id":"site-3421","name":"Basketball Court","lat":39.8790503,"lng":-82.9944532,"city":"Columbus, OH","source":"osm","numCourts":1,"lit":false,"indoor":false,"access":"","density":3,"score":1.8},{"id":"site-3504","name":"Basketball Court","lat":39.8924035,"lng":-82.8916899,"city":"Columbus, OH","source":"osm","numCourts":1,"lit":false,"indoor":false,"access":"","density":3,"score":1.8},{"id":"site-3337","name":"Brevoort Park Courts","lat":40.0362709,"lng":-83.001682,"city":"Columbus, OH","source":"osm","numCourts":1,"lit":false,"indoor":false,"access":"","density":1,"score":1.7},{"id":"site-3322","name":"Friendship Park Courts","lat":40.0155518,"lng":-82.875498,"city":"Columbus, OH","source":"osm","numCourts":1,"lit":false,"indoor":false,"access":"","density":1,"score":1.7},{"id":"site-5308","name":"Berkeley Park Tennis Courts Courts","lat":39.7806042,"lng":-105.047088,"city":"Denver, CO","source":"osm","numCourts":1,"lit":true,"indoor":false,"access":"","density":2,"score":2.9},{"id":"site-5609","name":"Basketball Court","lat":39.69559125,"lng":-104.8418066,"city":"Denver, CO","source":"osm","numCourts":2,"lit":false,"indoor":false,"access":"","density":4,"score":2.8},{"id":"site-5610","name":"Basketball Court","lat":39.6953507,"lng":-104.8393945,"city":"Denver, CO","source":"osm","numCourts":1,"lit":false,"indoor":false,"access":"","density":5,"score":2.5},{"id":"site-5665","name":"Columbia Middle School Courts","lat":39.6598518,"lng":-104.78338495,"city":"Denver, CO","source":"osm","numCourts":2,"lit":false,"indoor":false,"access":"","density":3,"score":2.5},{"id":"site-5942","name":"Dailey Park Courts","lat":39.7158678,"lng":-104.9929617,"city":"Denver, CO","source":"osm","numCourts":1,"lit":true,"indoor":false,"access":"yes","density":1,"score":2.5},{"id":"site-5540","name":"Columbus Park Courts","lat":39.7700044,"lng":-105.0045233,"city":"Denver, CO","source":"osm","numCourts":1,"lit":false,"indoor":false,"access":"","density":3,"score":2.4},{"id":"site-5381","name":"Dr. Daniel Hale Williams Park Courts","lat":39.7596714,"lng":-104.9703831,"city":"Denver, CO","source":"osm","numCourts":1,"lit":false,"indoor":false,"access":"","density":3,"score":2.4},{"id":"site-5380","name":"Fuller Park Courts","lat":39.7579034,"lng":-104.9674165,"city":"Denver, CO","source":"osm","numCourts":1,"lit":false,"indoor":false,"access":"","density":3,"score":2.4},{"id":"site-5274","name":"La Alma Recreation Center Courts","lat":39.734877,"lng":-105.0042356,"city":"Denver, CO","source":"osm","numCourts":1,"lit":false,"indoor":false,"access":"","density":3,"score":2.4},{"id":"site-5706","name":"Michael Northey Park Courts","lat":39.8504977,"lng":-105.12814925,"city":"Denver, CO","source":"osm","numCourts":2,"lit":false,"indoor":false,"access":"","density":1,"score":2.4},{"id":"site-5344","name":"Monaco Park Courts","lat":39.8015015,"lng":-104.9121257,"city":"Denver, CO","source":"osm","numCourts":1,"lit":false,"indoor":false,"access":"","density":3,"score":2.4},{"id":"site-5484","name":"Basketball Court","lat":39.7332368,"lng":-105.0234659,"city":"Denver, CO","source":"osm","numCourts":1,"lit":true,"indoor":false,"access":"","density":2,"score":2.3},{"id":"site-5379","name":"Gilpin Montessori Public School Courts","lat":39.7580759,"lng":-104.976931,"city":"Denver, CO","source":"osm","numCourts":1,"lit":true,"indoor":false,"access":"","density":2,"score":2.3},{"id":"site-5389","name":"Bruce Randolph School Courts","lat":39.77169065,"lng":-104.95218754999999,"city":"Denver, CO","source":"osm","numCourts":2,"lit":false,"indoor":false,"access":"","density":2,"score":2.2},{"id":"site-5383","name":"Cole High School Courts","lat":39.76414415,"lng":-104.96940860000001,"city":"Denver, CO","source":"osm","numCourts":2,"lit":false,"indoor":false,"access":"","density":2,"score":2.2},{"id":"site-5404","name":"Fulton Academy of Excellence Courts","lat":39.728545,"lng":-104.87149905000001,"city":"Denver, CO","source":"osm","numCourts":2,"lit":false,"indoor":false,"access":"","density":2,"score":2.2},{"id":"site-5856","name":"Walnut Hills Park Courts","lat":39.5893925,"lng":-104.8907038,"city":"Denver, CO","source":"osm","numCourts":1,"lit":true,"indoor":false,"access":"","density":0,"score":2.2},{"id":"site-5254","name":"Emerald Park Courts","lat":39.9217338,"lng":-105.0774158,"city":"Denver, CO","source":"osm","numCourts":1,"lit":false,"indoor":false,"access":"","density":2,"score":2.1},{"id":"site-5252","name":"Mestizo-Curtis Park Courts","lat":39.7623636,"lng":-104.976282,"city":"Denver, CO","source":"osm","numCourts":1,"lit":false,"indoor":false,"access":"","density":2,"score":2.1},{"id":"site-5576","name":"Marcy Park Courts","lat":39.5446726,"lng":-105.0134994,"city":"Denver, CO","source":"osm","numCourts":1,"lit":false,"indoor":false,"access":"","density":1,"score":1.7},{"id":"site-5691","name":"Applemeadows Park Courts","lat":39.805751,"lng":-105.2158325,"city":"Denver, CO","source":"osm","numCourts":1,"lit":false,"indoor":false,"access":"","density":0,"score":1.4},{"id":"site-5317","name":"Singletree Park Courts","lat":39.8008413,"lng":-104.7584804,"city":"Denver, CO","source":"osm","numCourts":1,"lit":false,"indoor":false,"access":"","density":0,"score":1.4},{"id":"site-5511","name":"White Ash Mine Park Courts","lat":39.765134,"lng":-105.2352804,"city":"Denver, CO","source":"osm","numCourts":1,"lit":false,"indoor":false,"access":"","density":0,"score":1.4},{"id":"site-2917","name":"Lasky Park Courts","lat":42.41484025,"lng":-83.05214889999999,"city":"Detroit, MI","source":"osm","numCourts":4,"lit":false,"indoor":false,"access":"","density":0,"score":3.1},{"id":"site-3025","name":"Harding Park Courts","lat":42.4723679,"lng":-83.1280894,"city":"Detroit, MI","source":"osm","numCourts":1,"lit":true,"indoor":false,"access":"","density":1,"score":2.5},{"id":"site-2999","name":"Lennon Memorial Park Courts","lat":42.4723565,"lng":-83.1189754,"city":"Detroit, MI","source":"osm","numCourts":1,"lit":true,"indoor":false,"access":"","density":1,"score":2.5},{"id":"site-3135","name":"Alton C. Parker Park Courts","lat":42.3128931,"lng":-83.0285904,"city":"Detroit, MI","source":"osm","numCourts":1,"lit":false,"indoor":false,"access":"","density":3,"score":2.4},{"id":"site-2912","name":"Eli Ciungan Park Courts","lat":42.25015445,"lng":-83.157446,"city":"Detroit, MI","source":"osm","numCourts":2,"lit":false,"indoor":false,"access":"","density":1,"score":2.4},{"id":"site-2935","name":"Lapeer Park Courts","lat":42.311144,"lng":-83.14792435,"city":"Detroit, MI","source":"osm","numCourts":2,"lit":false,"indoor":false,"access":"","density":1,"score":2.4},{"id":"site-3116","name":"Clinton Park (DPS) Courts","lat":42.398760949999996,"lng":-83.15081359999999,"city":"Detroit, MI","source":"osm","numCourts":2,"lit":false,"indoor":false,"access":"","density":0,"score":2.1},{"id":"site-2940","name":"David H. Shepherd Park Courts","lat":42.4670523,"lng":-83.1897639,"city":"Detroit, MI","source":"osm","numCourts":2,"lit":false,"indoor":false,"access":"","density":0,"score":2.1},{"id":"site-2926","name":"Fitzpatrick Park Courts","lat":42.3668692,"lng":-83.2226462,"city":"Detroit, MI","source":"osm","numCourts":1,"lit":false,"indoor":false,"access":"","density":2,"score":2.1},{"id":"site-2953","name":"Forest Park Courts","lat":42.3585315,"lng":-83.0453866,"city":"Detroit, MI","source":"osm","numCourts":1,"lit":false,"indoor":false,"access":"","density":2,"score":2.1},{"id":"site-3113","name":"Forest Park Courts","lat":42.3571029,"lng":-83.0469901,"city":"Detroit, MI","source":"osm","numCourts":1,"lit":false,"indoor":false,"access":"","density":2,"score":2.1},{"id":"site-2979","name":"Fred Thomas Park Courts","lat":42.3166464,"lng":-83.0305685,"city":"Detroit, MI","source":"osm","numCourts":1,"lit":false,"indoor":false,"access":"","density":2,"score":2.1},{"id":"site-2960","name":"Heather Lane Park Courts","lat":42.2739407,"lng":-83.2624012,"city":"Detroit, MI","source":"osm","numCourts":1,"lit":false,"indoor":false,"access":"","density":2,"score":2.1},{"id":"site-2934","name":"Lapeer Park Courts","lat":42.310781,"lng":-83.1467571,"city":"Detroit, MI","source":"osm","numCourts":1,"lit":false,"indoor":false,"access":"","density":2,"score":2.1},{"id":"site-3040","name":"McCabe Park Courts","lat":42.3722458,"lng":-83.1272898,"city":"Detroit, MI","source":"osm","numCourts":1,"lit":false,"indoor":false,"access":"","density":2,"score":2.1},{"id":"site-3108","name":"McCabe Park Courts","lat":42.3741671,"lng":-83.1263756,"city":"Detroit, MI","source":"osm","numCourts":1,"lit":false,"indoor":false,"access":"","density":2,"score":2.1},{"id":"site-2950","name":"Walter & Mae Reuther Park Courts","lat":42.3394671,"lng":-83.0262642,"city":"Detroit, MI","source":"osm","numCourts":1,"lit":false,"indoor":false,"access":"","density":2,"score":2.1},{"id":"site-3111","name":"Basketball Court","lat":42.423451150000005,"lng":-83.05651335,"city":"Detroit, MI","source":"osm","numCourts":2,"lit":false,"indoor":false,"access":"","density":1,"score":1.8},{"id":"site-2901","name":"Arrowhead park Courts","lat":42.3270951,"lng":-82.8930613,"city":"Detroit, MI","source":"osm","numCourts":1,"lit":false,"indoor":false,"access":"yes","density":1,"score":1.7},{"id":"site-2992","name":"Heilmann Playfield Courts","lat":42.43865165,"lng":-82.96128015,"city":"Detroit, MI","source":"osm","numCourts":2,"lit":false,"indoor":false,"access":"","density":0,"score":1.5},{"id":"site-3091","name":"Hardy Howe Crowell Recreation Center Courts","lat":42.4107453,"lng":-83.2575816,"city":"Detroit, MI","source":"osm","numCourts":1,"lit":false,"indoor":false,"access":"","density":0,"score":1.4},{"id":"site-2962","name":"Lloyd Carr Park Courts","lat":42.1788112,"lng":-83.1748198,"city":"Detroit, MI","source":"osm","numCourts":1,"lit":false,"indoor":false,"access":"","density":0,"score":1.4},{"id":"site-7252","name":"Clovis North Educational Center Courts","lat":36.89107565,"lng":-119.7366145,"city":"Fresno, CA","source":"osm","numCourts":6,"lit":false,"indoor":false,"access":"","density":1,"score":3.4},{"id":"site-7253","name":"Clovis North High School Courts","lat":36.8911758,"lng":-119.73173008,"city":"Fresno, CA","source":"osm","numCourts":5,"lit":false,"indoor":false,"access":"","density":1,"score":2.8},{"id":"site-7242","name":"Clovis West High School Courts","lat":36.859683000000004,"lng":-119.761557025,"city":"Fresno, CA","source":"osm","numCourts":4,"lit":false,"indoor":false,"access":"","density":0,"score":2.5},{"id":"site-7249","name":"Sanger West High Courts","lat":36.7094907,"lng":-119.6792543,"city":"Fresno, CA","source":"osm","numCourts":4,"lit":false,"indoor":false,"access":"","density":0,"score":2.5},{"id":"site-7215","name":"Edison Computech School Courts","lat":36.7174568,"lng":-119.80584975,"city":"Fresno, CA","source":"osm","numCourts":2,"lit":false,"indoor":false,"access":"","density":2,"score":2.2},{"id":"site-7268","name":"Sequoia Middle School Courts","lat":36.7235987,"lng":-119.75683065,"city":"Fresno, CA","source":"osm","numCourts":2,"lit":false,"indoor":false,"access":"","density":2,"score":2.2},{"id":"site-7267","name":"Vang Pao Elementary School Courts","lat":36.7260088,"lng":-119.7551948,"city":"Fresno, CA","source":"osm","numCourts":2,"lit":false,"indoor":false,"access":"","density":2,"score":2.2},{"id":"site-7219","name":"Calwa Swings Courts","lat":36.7145391,"lng":-119.7496474,"city":"Fresno, CA","source":"osm","numCourts":1,"lit":true,"indoor":false,"access":"permissive","density":1,"score":1.9},{"id":"site-7244","name":"Basketball Court","lat":36.8262911,"lng":-119.8332216,"city":"Fresno, CA","source":"osm","numCourts":1,"lit":false,"indoor":false,"access":"","density":3,"score":1.8},{"id":"site-7270","name":"Copper Hills Elementary School Courts","lat":36.8763245,"lng":-119.74809635,"city":"Fresno, CA","source":"osm","numCourts":2,"lit":false,"indoor":false,"access":"","density":1,"score":1.8},{"id":"site-7234","name":"Oso de Oro Park Courts","lat":36.8169521,"lng":-119.8289567,"city":"Fresno, CA","source":"osm","numCourts":1,"lit":false,"indoor":false,"access":"","density":1,"score":1.7},{"id":"site-7223","name":"Todd Beamer Park Courts","lat":36.878303,"lng":-119.7476717,"city":"Fresno, CA","source":"osm","numCourts":1,"lit":false,"indoor":false,"access":"","density":1,"score":1.7},{"id":"site-7247","name":"Basketball Court","lat":36.8294713,"lng":-119.8300434,"city":"Fresno, CA","source":"osm","numCourts":1,"lit":false,"indoor":false,"access":"","density":2,"score":1.5},{"id":"site-7248","name":"Basketball Court","lat":36.8280527,"lng":-119.8299691,"city":"Fresno, CA","source":"osm","numCourts":1,"lit":false,"indoor":false,"access":"","density":2,"score":1.5},{"id":"site-7250","name":"Basketball Court","lat":36.7859877,"lng":-119.6706682,"city":"Fresno, CA","source":"osm","numCourts":2,"lit":false,"indoor":false,"access":"","density":0,"score":1.5},{"id":"site-7227","name":"Duncan Polytechnical High School Courts","lat":36.78354229999999,"lng":-119.75144795,"city":"Fresno, CA","source":"osm","numCourts":2,"lit":false,"indoor":false,"access":"","density":0,"score":1.5},{"id":"site-7264","name":"Roosevelt High School Courts","lat":36.7415151,"lng":-119.75295175,"city":"Fresno, CA","source":"osm","numCourts":2,"lit":false,"indoor":false,"access":"","density":0,"score":1.5},{"id":"site-7211","name":"Tehipite Middle School Courts","lat":36.7508913,"lng":-119.77831555,"city":"Fresno, CA","source":"osm","numCourts":2,"lit":false,"indoor":false,"access":"","density":0,"score":1.5},{"id":"site-7213","name":"Wishon Elementary Courts","lat":36.774780750000005,"lng":-119.7594224,"city":"Fresno, CA","source":"osm","numCourts":2,"lit":false,"indoor":false,"access":"","density":0,"score":1.5},{"id":"site-4034","name":"Lee Hager Park Courts","lat":29.6467781,"lng":-95.4866483,"city":"Houston, TX","source":"osm","numCourts":1,"lit":true,"indoor":false,"access":"","density":1,"score":2.5},{"id":"site-4002","name":"Finnigan Park Courts","lat":29.76970995,"lng":-95.31985295000001,"city":"Houston, TX","source":"osm","numCourts":2,"lit":false,"indoor":false,"access":"","density":1,"score":2.4},{"id":"site-4032","name":"Parker Elementary School Courts","lat":29.66575115,"lng":-95.48347724999999,"city":"Houston, TX","source":"osm","numCourts":2,"lit":false,"indoor":false,"access":"","density":1,"score":2.4},{"id":"site-4003","name":"Carnegie Vanguard High School Courts","lat":29.7543549,"lng":-95.3844378,"city":"Houston, TX","source":"osm","numCourts":1,"lit":true,"indoor":false,"access":"","density":2,"score":2.3},{"id":"site-3975","name":"Clark Park Courts","lat":29.8482289,"lng":-95.3756584,"city":"Houston, TX","source":"osm","numCourts":1,"lit":true,"indoor":false,"access":"","density":0,"score":2.2},{"id":"site-3958","name":"Lawrence Park Courts","lat":29.7836598,"lng":-95.4070924,"city":"Houston, TX","source":"osm","numCourts":1,"lit":true,"indoor":false,"access":"yes","density":0,"score":2.2},{"id":"site-4038","name":"Maxie Park Courts","lat":29.6350914,"lng":-95.4119453,"city":"Houston, TX","source":"osm","numCourts":1,"lit":true,"indoor":false,"access":"","density":0,"score":2.2},{"id":"site-3929","name":"Peggy Park Courts","lat":29.7313414,"lng":-95.3754731,"city":"Houston, TX","source":"osm","numCourts":1,"lit":true,"indoor":false,"access":"","density":0,"score":2.2},{"id":"site-3916","name":"Catherine Delce Park Courts","lat":29.79411985,"lng":-95.3114535,"city":"Houston, TX","source":"osm","numCourts":2,"lit":false,"indoor":false,"access":"","density":0,"score":2.1},{"id":"site-3911","name":"Gregory - Lincoln Education Center Courts","lat":29.7559528,"lng":-95.3846445,"city":"Houston, TX","source":"osm","numCourts":1,"lit":false,"indoor":false,"access":"","density":2,"score":2.1},{"id":"site-3867","name":"J. T. Trotter Park Courts","lat":29.873269999999998,"lng":-95.2850397,"city":"Houston, TX","source":"osm","numCourts":2,"lit":false,"indoor":false,"access":"yes","density":0,"score":2.1},{"id":"site-3919","name":"Wiley Park Courts","lat":29.7546459,"lng":-95.3836913,"city":"Houston, TX","source":"osm","numCourts":1,"lit":false,"indoor":false,"access":"","density":2,"score":2.1},{"id":"site-4051","name":"Fleming Middle School Courts","lat":29.79251825,"lng":-95.32170335,"city":"Houston, TX","source":"osm","numCourts":2,"lit":false,"indoor":false,"access":"","density":1,"score":1.8},{"id":"site-4083","name":"Francis Scott Key Middle School Courts","lat":29.811387949999997,"lng":-95.3314134,"city":"Houston, TX","source":"osm","numCourts":2,"lit":false,"indoor":false,"access":"","density":1,"score":1.8},{"id":"site-3967","name":"Hamilton Middle School Courts","lat":29.80513355,"lng":-95.3981457,"city":"Houston, TX","source":"osm","numCourts":2,"lit":false,"indoor":false,"access":"","density":1,"score":1.8},{"id":"site-3951","name":"SBMSA Fields","lat":29.781745,"lng":-95.5847457,"city":"Houston, TX","source":"osm","numCourts":1,"lit":false,"indoor":false,"access":"","density":3,"score":1.8},{"id":"site-3940","name":"Westchester Academy for International Studies Courts","lat":29.7807824,"lng":-95.5836169,"city":"Houston, TX","source":"osm","numCourts":1,"lit":false,"indoor":false,"access":"","density":3,"score":1.8},{"id":"site-4011","name":"Westchester Academy for International Studies Courts","lat":29.7808901,"lng":-95.5842931,"city":"Houston, TX","source":"osm","numCourts":1,"lit":false,"indoor":false,"access":"","density":3,"score":1.8},{"id":"site-3948","name":"Wilchester Elementary School Courts","lat":29.7823088,"lng":-95.5802005,"city":"Houston, TX","source":"osm","numCourts":1,"lit":false,"indoor":false,"access":"","density":3,"score":1.8},{"id":"site-3937","name":"Keegans Wood Park Courts","lat":29.6759852,"lng":-95.6278903,"city":"Houston, TX","source":"osm","numCourts":1,"lit":false,"indoor":false,"access":"","density":1,"score":1.7},{"id":"site-3849","name":"Schwartz Park Courts","lat":29.8133007,"lng":-95.4944691,"city":"Houston, TX","source":"osm","numCourts":1,"lit":false,"indoor":false,"access":"","density":1,"score":1.7},{"id":"site-3953","name":"Central Bridge Park Courts","lat":29.8596725,"lng":-95.6124872,"city":"Houston, TX","source":"osm","numCourts":1,"lit":false,"indoor":false,"access":"","density":0,"score":1.4},{"id":"site-3913","name":"Reflection Bay Recreation Center Courts","lat":29.5591849,"lng":-95.4074526,"city":"Houston, TX","source":"osm","numCourts":1,"lit":false,"indoor":false,"access":"","density":0,"score":1.4},{"id":"site-3896","name":"Sagemeadow Park Courts","lat":29.5852423,"lng":-95.2316232,"city":"Houston, TX","source":"osm","numCourts":1,"lit":false,"indoor":false,"access":"","density":0,"score":1.4},{"id":"site-3933","name":"Strawberry Park Courts","lat":29.6679247,"lng":-95.196007,"city":"Houston, TX","source":"osm","numCourts":1,"lit":false,"indoor":false,"access":"","density":0,"score":1.4},{"id":"site-4068","name":"Basketball Court","lat":29.8265749,"lng":-95.1629241,"city":"Houston, TX","source":"osm","numCourts":1,"lit":false,"indoor":false,"access":"","density":0,"score":0.8},{"id":"site-2876","name":"Gymnasium","lat":30.3458979,"lng":-81.7237842,"city":"Jacksonville, FL","source":"osm","numCourts":1,"lit":false,"indoor":false,"access":"","density":4,"score":2.7},{"id":"site-2855","name":"James Weldon Johnson College Preparatory Middle School Courts","lat":30.3423823,"lng":-81.72618940000001,"city":"Jacksonville, FL","source":"osm","numCourts":2,"lit":false,"indoor":false,"access":"","density":3,"score":2.5},{"id":"site-2764","name":"Warren W. Schell Jr. Memorial Park Courts","lat":30.3426727,"lng":-81.6621342,"city":"Jacksonville, FL","source":"osm","numCourts":1,"lit":true,"indoor":false,"access":"","density":1,"score":2.5},{"id":"site-2747","name":"Willow Branch Park Courts","lat":30.3077967,"lng":-81.6994584,"city":"Jacksonville, FL","source":"osm","numCourts":1,"lit":true,"indoor":false,"access":"","density":1,"score":2.5},{"id":"site-2786","name":"Bruce Park Courts","lat":30.33412295,"lng":-81.59112305,"city":"Jacksonville, FL","source":"osm","numCourts":2,"lit":false,"indoor":false,"access":"","density":1,"score":2.4},{"id":"site-2762","name":"Mallison Park Courts","lat":30.322262,"lng":-81.7092791,"city":"Jacksonville, FL","source":"osm","numCourts":1,"lit":true,"indoor":false,"access":"","density":0,"score":2.2},{"id":"site-2794","name":"McGirts Creek Park Courts","lat":30.2379028,"lng":-81.7914866,"city":"Jacksonville, FL","source":"osm","numCourts":1,"lit":true,"indoor":false,"access":"","density":0,"score":2.2},{"id":"site-2801","name":"Parkwood Heights Elementary Courts","lat":30.340001,"lng":-81.5717296,"city":"Jacksonville, FL","source":"osm","numCourts":1,"lit":false,"indoor":false,"access":"","density":2,"score":2.1},{"id":"site-2877","name":"Paxon School For Advanced Studies Courts","lat":30.3460001,"lng":-81.725327,"city":"Jacksonville, FL","source":"osm","numCourts":1,"lit":false,"indoor":false,"access":"","density":4,"score":2.1},{"id":"site-2788","name":"Ray Greene Park Courts","lat":30.4314337,"lng":-81.6796968,"city":"Jacksonville, FL","source":"osm","numCourts":1,"lit":false,"indoor":false,"access":"","density":2,"score":2.1},{"id":"site-2756","name":"Robert F Kennedy Park Courts","lat":30.3360664,"lng":-81.6465945,"city":"Jacksonville, FL","source":"osm","numCourts":1,"lit":false,"indoor":false,"access":"","density":2,"score":2.1},{"id":"site-2790","name":"Basketball Court","lat":30.4651617,"lng":-81.5625502,"city":"Jacksonville, FL","source":"osm","numCourts":2,"lit":false,"indoor":false,"access":"","density":1,"score":1.8},{"id":"site-2882","name":"Jean Ribault High School Courts","lat":30.391484,"lng":-81.70768154999999,"city":"Jacksonville, FL","source":"osm","numCourts":2,"lit":false,"indoor":false,"access":"","density":1,"score":1.8},{"id":"site-2837","name":"Mandarin Middle School Courts","lat":30.1891675,"lng":-81.58799975,"city":"Jacksonville, FL","source":"osm","numCourts":2,"lit":false,"indoor":false,"access":"","density":1,"score":1.8},{"id":"site-2878","name":"Paxon School For Advanced Studies Courts","lat":30.3464486,"lng":-81.7231734,"city":"Jacksonville, FL","source":"osm","numCourts":1,"lit":false,"indoor":false,"access":"","density":3,"score":1.8},{"id":"site-2729","name":"Sandalwood High School Courts","lat":30.2995964,"lng":-81.51884246666667,"city":"Jacksonville, FL","source":"osm","numCourts":3,"lit":false,"indoor":false,"access":"","density":1,"score":1.8},{"id":"site-2723","name":"Twin Lakes Academy Middle School Courts","lat":30.2215026,"lng":-81.51705100000001,"city":"Jacksonville, FL","source":"osm","numCourts":2,"lit":false,"indoor":false,"access":"","density":1,"score":1.8},{"id":"site-2706","name":"Brooklyn Park Courts","lat":30.3263046,"lng":-81.6748267,"city":"Jacksonville, FL","source":"osm","numCourts":1,"lit":false,"indoor":false,"access":"","density":1,"score":1.7},{"id":"site-2714","name":"Riverside Park Courts","lat":30.3177054,"lng":-81.6813292,"city":"Jacksonville, FL","source":"osm","numCourts":1,"lit":false,"indoor":false,"access":"","density":1,"score":1.7},{"id":"site-2839","name":"Loretto Elementary School Courts","lat":30.157004,"lng":-81.6066165,"city":"Jacksonville, FL","source":"osm","numCourts":2,"lit":false,"indoor":false,"access":"","density":0,"score":1.5},{"id":"site-2707","name":"Basket Ball","lat":30.1957371,"lng":-81.8146172,"city":"Jacksonville, FL","source":"osm","numCourts":1,"lit":false,"indoor":false,"access":"","density":1,"score":1.1},{"id":"site-2702","name":"Whitehouse Elementary School Courts","lat":30.3119412,"lng":-81.8473532,"city":"Jacksonville, FL","source":"osm","numCourts":1,"lit":false,"indoor":false,"access":"","density":0,"score":0.8},{"id":"site-3667","name":"Oak Park Courts","lat":39.0466572,"lng":-94.55058650000001,"city":"Kansas City, MO","source":"osm","numCourts":2,"lit":true,"indoor":false,"access":"","density":1,"score":3.2},{"id":"site-3677","name":"Troost Park Courts","lat":39.0717311,"lng":-94.5682016,"city":"Kansas City, MO","source":"osm","numCourts":1,"lit":false,"indoor":false,"access":"","density":3,"score":2.4},{"id":"site-3678","name":"Troost Park Courts","lat":39.0712293,"lng":-94.5678583,"city":"Kansas City, MO","source":"osm","numCourts":1,"lit":false,"indoor":false,"access":"","density":3,"score":2.4},{"id":"site-3728","name":"Matt Tylor Park Courts","lat":38.9797337,"lng":-94.7327427,"city":"Kansas City, MO","source":"osm","numCourts":1,"lit":true,"indoor":false,"access":"","density":0,"score":2.2},{"id":"site-3701","name":"Basketball Court","lat":39.0254085,"lng":-94.548872,"city":"Kansas City, MO","source":"osm","numCourts":1,"lit":false,"indoor":false,"access":"","density":4,"score":2.1},{"id":"site-3682","name":"Gage Park Courts","lat":39.0858566,"lng":-94.5992665,"city":"Kansas City, MO","source":"osm","numCourts":1,"lit":false,"indoor":false,"access":"","density":2,"score":2.1},{"id":"site-3705","name":"Gage Park Courts","lat":39.0863183,"lng":-94.5976096,"city":"Kansas City, MO","source":"osm","numCourts":1,"lit":false,"indoor":false,"access":"","density":2,"score":2.1},{"id":"site-3648","name":"Harmony Park Courts","lat":39.1009452,"lng":-94.54635435,"city":"Kansas City, MO","source":"osm","numCourts":2,"lit":false,"indoor":false,"access":"","density":0,"score":2.1},{"id":"site-3700","name":"Oak Park Courts","lat":39.0476965,"lng":-94.5524932,"city":"Kansas City, MO","source":"osm","numCourts":1,"lit":false,"indoor":false,"access":"","density":2,"score":2.1},{"id":"site-3646","name":"Observation Park Courts","lat":39.0890987,"lng":-94.597719,"city":"Kansas City, MO","source":"osm","numCourts":1,"lit":false,"indoor":false,"access":"","density":2,"score":2.1},{"id":"site-3712","name":"Edgerton Park Courts","lat":39.1298942,"lng":-94.6164117,"city":"Kansas City, MO","source":"osm","numCourts":1,"lit":false,"indoor":false,"access":"","density":1,"score":1.7},{"id":"site-3713","name":"Edgerton Park Courts","lat":39.1288131,"lng":-94.6174595,"city":"Kansas City, MO","source":"osm","numCourts":1,"lit":false,"indoor":false,"access":"","density":1,"score":1.7},{"id":"site-3831","name":"Freeway Park Courts","lat":39.0967403,"lng":-94.5439225,"city":"Kansas City, MO","source":"osm","numCourts":1,"lit":false,"indoor":false,"access":"","density":1,"score":1.7},{"id":"site-3796","name":"Gordon Parks Elementary School Courts","lat":39.0602045,"lng":-94.602469,"city":"Kansas City, MO","source":"osm","numCourts":1,"lit":false,"indoor":false,"access":"","density":1,"score":1.7},{"id":"site-3632","name":"Ivanhoe Park Courts","lat":39.0475828,"lng":-94.5581939,"city":"Kansas City, MO","source":"osm","numCourts":1,"lit":false,"indoor":false,"access":"","density":1,"score":1.7},{"id":"site-3754","name":"Roanoke Park Courts","lat":39.062574,"lng":-94.5997344,"city":"Kansas City, MO","source":"osm","numCourts":1,"lit":false,"indoor":false,"access":"yes","density":1,"score":1.7},{"id":"site-3830","name":"Spring Valley Park Courts","lat":39.0746958,"lng":-94.5579663,"city":"Kansas City, MO","source":"osm","numCourts":1,"lit":false,"indoor":false,"access":"","density":1,"score":1.7},{"id":"site-3697","name":"The Grove Park Courts","lat":39.0940181,"lng":-94.5473434,"city":"Kansas City, MO","source":"osm","numCourts":1,"lit":false,"indoor":false,"access":"","density":1,"score":1.7},{"id":"site-3804","name":"Basketball Court","lat":39.2450392,"lng":-94.6531033,"city":"Kansas City, MO","source":"osm","numCourts":1,"lit":true,"indoor":false,"access":"","density":0,"score":1.6},{"id":"site-3777","name":"The Concourse Courts","lat":39.1122982,"lng":-94.5463445,"city":"Kansas City, MO","source":"osm","numCourts":1,"lit":true,"indoor":false,"access":"","density":0,"score":1.6},{"id":"site-3685","name":"Center Elementary School Courts","lat":38.973522,"lng":-94.5632543,"city":"Kansas City, MO","source":"osm","numCourts":1,"lit":false,"indoor":false,"access":"","density":0,"score":1.4},{"id":"site-3639","name":"Happy Rock Park Courts","lat":39.2305942,"lng":-94.5334078,"city":"Kansas City, MO","source":"osm","numCourts":1,"lit":false,"indoor":false,"access":"","density":0,"score":1.4},{"id":"site-3645","name":"Cler-Mont Elementary School Courts","lat":39.1152292,"lng":-94.3523666,"city":"Kansas City, MO","source":"osm","numCourts":1,"lit":false,"indoor":false,"access":"","density":0,"score":0.8},{"id":"site-4934","name":"Tule Springs Regional Park Courts","lat":36.2857954,"lng":-115.15762000000001,"city":"Las Vegas, NV","source":"osm","numCourts":2,"lit":true,"indoor":false,"access":"yes","density":0,"score":2.9},{"id":"site-4797","name":"Mendenhall Center","lat":36.1037734,"lng":-115.1438546,"city":"Las Vegas, NV","source":"osm","numCourts":1,"lit":false,"indoor":false,"access":"","density":4,"score":2.7},{"id":"site-4783","name":"Thomas & Mack Center","lat":36.1048956,"lng":-115.1442885,"city":"Las Vegas, NV","source":"osm","numCourts":1,"lit":false,"indoor":false,"access":"","density":4,"score":2.7},{"id":"site-4895","name":"Lewis Family Park Courts","lat":36.1514515,"lng":-115.0320669,"city":"Las Vegas, NV","source":"osm","numCourts":1,"lit":true,"indoor":false,"access":"yes","density":1,"score":2.5},{"id":"site-4850","name":"Trail Canyon Park Courts","lat":36.0461371,"lng":-115.0361962,"city":"Las Vegas, NV","source":"osm","numCourts":1,"lit":true,"indoor":false,"access":"","density":1,"score":2.5},{"id":"site-4891","name":"Midbar Kodesh Temple Early Childhood Center Courts","lat":36.0203258,"lng":-115.0705589,"city":"Las Vegas, NV","source":"osm","numCourts":1,"lit":false,"indoor":false,"access":"","density":3,"score":2.4},{"id":"site-4859","name":"Trail Canyon Park Courts","lat":36.04586105,"lng":-115.03705495,"city":"Las Vegas, NV","source":"osm","numCourts":2,"lit":false,"indoor":false,"access":"","density":1,"score":2.4},{"id":"site-4822","name":"Basketball Court","lat":36.2472639,"lng":-115.31251635000001,"city":"Las Vegas, NV","source":"osm","numCourts":2,"lit":true,"indoor":false,"access":"","density":0,"score":2.3},{"id":"site-4790","name":"Basketball Court","lat":36.0710524,"lng":-115.11514155,"city":"Las Vegas, NV","source":"osm","numCourts":2,"lit":true,"indoor":false,"access":"","density":0,"score":2.3},{"id":"site-4885","name":"Basketball Court","lat":36.19139075,"lng":-115.07825600000001,"city":"Las Vegas, NV","source":"osm","numCourts":2,"lit":false,"indoor":false,"access":"","density":2,"score":2.2},{"id":"site-4800","name":"Ed Fountain Park Courts","lat":36.1864018,"lng":-115.2014129,"city":"Las Vegas, NV","source":"osm","numCourts":1,"lit":true,"indoor":false,"access":"","density":0,"score":2.2},{"id":"site-4887","name":"Mario C and Joanne Monaco Middle School Courts","lat":36.194698450000004,"lng":-115.06549065,"city":"Las Vegas, NV","source":"osm","numCourts":2,"lit":false,"indoor":false,"access":"","density":2,"score":2.2},{"id":"site-4963","name":"Ravenwood Park Courts","lat":36.1113557,"lng":-115.2478486,"city":"Las Vegas, NV","source":"osm","numCourts":1,"lit":true,"indoor":false,"access":"","density":0,"score":2.2},{"id":"site-4886","name":"Ruben P. Diaz Elementary School Courts","lat":36.18915815,"lng":-115.07839185,"city":"Las Vegas, NV","source":"osm","numCourts":2,"lit":false,"indoor":false,"access":"","density":2,"score":2.2},{"id":"site-4843","name":"Seastrand Community Park Courts","lat":36.2778078,"lng":-115.1605183,"city":"Las Vegas, NV","source":"osm","numCourts":1,"lit":true,"indoor":false,"access":"","density":0,"score":2.2},{"id":"site-4898","name":"Terrazza Park Courts","lat":36.1012246,"lng":-114.9355125,"city":"Las Vegas, NV","source":"osm","numCourts":1,"lit":true,"indoor":false,"access":"permissive","density":0,"score":2.2},{"id":"site-4897","name":"Weston Hills Park Basketball Court","lat":36.074245,"lng":-114.9804936,"city":"Las Vegas, NV","source":"osm","numCourts":1,"lit":true,"indoor":false,"access":"permissive","density":0,"score":2.2},{"id":"site-4784","name":"Cox Pavilion","lat":36.1042641,"lng":-115.1433888,"city":"Las Vegas, NV","source":"osm","numCourts":1,"lit":false,"indoor":false,"access":"","density":4,"score":2.1},{"id":"site-4803","name":"Discovery Park Courts","lat":36.0169997,"lng":-115.0742031,"city":"Las Vegas, NV","source":"osm","numCourts":1,"lit":false,"indoor":false,"access":"","density":2,"score":2.1},{"id":"site-2599","name":"Robert Howse Park Courts","lat":35.1401783,"lng":-89.96229075,"city":"Memphis, TN","source":"osm","numCourts":2,"lit":false,"indoor":false,"access":"","density":0,"score":2.1},{"id":"site-2611","name":"Arthur Halle Stadium Courts","lat":35.079123300000006,"lng":-89.8833874,"city":"Memphis, TN","source":"osm","numCourts":2,"lit":false,"indoor":false,"access":"","density":0,"score":1.5},{"id":"site-2597","name":"Basketball Court","lat":35.1286901,"lng":-89.9811088,"city":"Memphis, TN","source":"osm","numCourts":1,"lit":false,"indoor":false,"access":"","density":2,"score":1.5},{"id":"site-2594","name":"Canale Arena","lat":35.1267905,"lng":-89.9830399,"city":"Memphis, TN","source":"osm","numCourts":1,"lit":false,"indoor":false,"access":"","density":2,"score":1.5},{"id":"site-2596","name":"Steam Academy Courts","lat":35.1248557,"lng":-89.9811897,"city":"Memphis, TN","source":"osm","numCourts":1,"lit":false,"indoor":false,"access":"","density":2,"score":1.5},{"id":"site-2628","name":"Chickasaw Heritage Park Courts","lat":35.122591,"lng":-90.0740607,"city":"Memphis, TN","source":"osm","numCourts":1,"lit":false,"indoor":false,"access":"","density":0,"score":1.4},{"id":"site-2598","name":"Glenview Park Courts","lat":35.1157483,"lng":-90.0027003,"city":"Memphis, TN","source":"osm","numCourts":1,"lit":false,"indoor":false,"access":"","density":0,"score":1.4},{"id":"site-2613","name":"Grimsley Park Courts","lat":35.163113,"lng":-90.1977232,"city":"Memphis, TN","source":"osm","numCourts":1,"lit":false,"indoor":false,"access":"","density":0,"score":1.4},{"id":"site-2607","name":"Hightower Park Courts","lat":35.1454769,"lng":-90.1683561,"city":"Memphis, TN","source":"osm","numCourts":1,"lit":false,"indoor":false,"access":"","density":0,"score":1.4},{"id":"site-2625","name":"Lewis-Davis Park Courts","lat":35.1058867,"lng":-89.9692609,"city":"Memphis, TN","source":"osm","numCourts":1,"lit":false,"indoor":false,"access":"","density":0,"score":1.4},{"id":"site-2600","name":"Morris Park Courts","lat":35.1455427,"lng":-90.0355529,"city":"Memphis, TN","source":"osm","numCourts":1,"lit":false,"indoor":false,"access":"","density":0,"score":1.4},{"id":"site-2623","name":"O.L. Cash Park Courts","lat":35.0495346,"lng":-90.0819793,"city":"Memphis, TN","source":"osm","numCourts":1,"lit":false,"indoor":false,"access":"","density":0,"score":1.4},{"id":"site-2593","name":"T.O. Fuller State Park Courts","lat":35.0669065,"lng":-90.1124767,"city":"Memphis, TN","source":"osm","numCourts":1,"lit":false,"indoor":false,"access":"","density":0,"score":1.4},{"id":"site-2608","name":"Basketball Court","lat":35.0510193,"lng":-90.0091766,"city":"Memphis, TN","source":"osm","numCourts":1,"lit":false,"indoor":false,"access":"","density":1,"score":1.1},{"id":"site-2610","name":"Basketball Court","lat":35.0496137,"lng":-90.004057,"city":"Memphis, TN","source":"osm","numCourts":1,"lit":false,"indoor":false,"access":"","density":1,"score":1.1},{"id":"site-2605","name":"Basketball Court","lat":35.2207561,"lng":-90.2020895,"city":"Memphis, TN","source":"osm","numCourts":1,"lit":false,"indoor":false,"access":"","density":0,"score":0.8},{"id":"site-2617","name":"Basketball Court","lat":35.2212904,"lng":-89.9161487,"city":"Memphis, TN","source":"osm","numCourts":1,"lit":false,"indoor":false,"access":"","density":0,"score":0.8},{"id":"site-2618","name":"Basketball Court","lat":35.202256,"lng":-90.0292831,"city":"Memphis, TN","source":"osm","numCourts":1,"lit":false,"indoor":false,"access":"","density":0,"score":0.8},{"id":"site-2601","name":"Basketball Court","lat":35.1122548,"lng":-89.8669708,"city":"Memphis, TN","source":"osm","numCourts":1,"lit":false,"indoor":false,"access":"","density":0,"score":0.8},{"id":"site-2603","name":"Basketball Court","lat":35.049618,"lng":-89.9427697,"city":"Memphis, TN","source":"osm","numCourts":1,"lit":false,"indoor":false,"access":"","density":0,"score":0.8},{"id":"site-2592","name":"FedExForum","lat":35.1382268,"lng":-90.0506998,"city":"Memphis, TN","source":"osm","numCourts":1,"lit":false,"indoor":false,"access":"","density":0,"score":0.8},{"id":"site-2595","name":"White Station High School Courts","lat":35.1185732,"lng":-89.9057483,"city":"Memphis, TN","source":"osm","numCourts":1,"lit":false,"indoor":false,"access":"","density":0,"score":0.8},{"id":"site-2507","name":"Edgehill Park Courts","lat":36.1406501,"lng":-86.7887874,"city":"Nashville, TN","source":"osm","numCourts":1,"lit":false,"indoor":false,"access":"","density":1,"score":1.7},{"id":"site-2543","name":"Fannie Mae Dees Park Courts","lat":36.135975,"lng":-86.8066178,"city":"Nashville, TN","source":"osm","numCourts":1,"lit":false,"indoor":false,"access":"","density":1,"score":1.7},{"id":"site-2505","name":"Reservoir Park Courts","lat":36.1367885,"lng":-86.7792701,"city":"Nashville, TN","source":"osm","numCourts":1,"lit":false,"indoor":false,"access":"","density":1,"score":1.7},{"id":"site-2508","name":"Reservoir Park Courts","lat":36.1373755,"lng":-86.7813507,"city":"Nashville, TN","source":"osm","numCourts":1,"lit":false,"indoor":false,"access":"","density":1,"score":1.7},{"id":"site-2551","name":"Vanderbilt Recreation and Wellness Center Courts","lat":36.1396124,"lng":-86.8093225,"city":"Nashville, TN","source":"osm","numCourts":1,"lit":false,"indoor":false,"access":"","density":1,"score":1.7},{"id":"site-2517","name":"William A. Pitts Park Courts","lat":36.0582063,"lng":-86.7059574,"city":"Nashville, TN","source":"osm","numCourts":1,"lit":false,"indoor":false,"access":"","density":1,"score":1.7},{"id":"site-2591","name":"Natural Playground Courts","lat":36.12707,"lng":-86.7872382,"city":"Nashville, TN","source":"osm","numCourts":1,"lit":true,"indoor":false,"access":"","density":0,"score":1.6},{"id":"site-2558","name":"Bordeaux - Timothy Park Courts","lat":36.2133019,"lng":-86.8439644,"city":"Nashville, TN","source":"osm","numCourts":1,"lit":false,"indoor":false,"access":"","density":0,"score":1.4},{"id":"site-2490","name":"Charlotte Park Courts","lat":36.1537935,"lng":-86.8699434,"city":"Nashville, TN","source":"osm","numCourts":1,"lit":false,"indoor":false,"access":"","density":0,"score":1.4},{"id":"site-2500","name":"Cleveland Park Courts","lat":36.1874794,"lng":-86.7604092,"city":"Nashville, TN","source":"osm","numCourts":1,"lit":false,"indoor":false,"access":"","density":0,"score":1.4},{"id":"site-2506","name":"Columbine Park Courts","lat":36.1158867,"lng":-86.7651659,"city":"Nashville, TN","source":"osm","numCourts":1,"lit":false,"indoor":false,"access":"","density":0,"score":1.4},{"id":"site-2532","name":"Dalewood Baptist Church - Christian Life Center","lat":36.2080299,"lng":-86.7159848,"city":"Nashville, TN","source":"osm","numCourts":1,"lit":false,"indoor":false,"access":"","density":0,"score":1.4},{"id":"site-2509","name":"Elcan Athletics Center","lat":36.0565106,"lng":-86.9196299,"city":"Nashville, TN","source":"osm","numCourts":1,"lit":false,"indoor":false,"access":"","density":0,"score":1.4},{"id":"site-2521","name":"Elizabeth Park Courts","lat":36.1788784,"lng":-86.8034984,"city":"Nashville, TN","source":"osm","numCourts":1,"lit":false,"indoor":false,"access":"","density":0,"score":1.4},{"id":"site-2499","name":"McFerrin Park Courts","lat":36.1813804,"lng":-86.7663328,"city":"Nashville, TN","source":"osm","numCourts":1,"lit":false,"indoor":false,"access":"","density":0,"score":1.4},{"id":"site-2526","name":"Moore Physical Education Center","lat":36.1408356,"lng":-86.7526771,"city":"Nashville, TN","source":"osm","numCourts":1,"lit":false,"indoor":false,"access":"","density":0,"score":1.4},{"id":"site-2497","name":"Paragon Mills Park Courts","lat":36.09487,"lng":-86.7157114,"city":"Nashville, TN","source":"osm","numCourts":1,"lit":false,"indoor":false,"access":"","density":0,"score":1.4},{"id":"site-2527","name":"Watkins Park Courts","lat":36.1627297,"lng":-86.799636,"city":"Nashville, TN","source":"osm","numCourts":1,"lit":false,"indoor":false,"access":"","density":0,"score":1.4},{"id":"site-2536","name":"West Park Courts","lat":36.1628052,"lng":-86.8628061,"city":"Nashville, TN","source":"osm","numCourts":1,"lit":false,"indoor":false,"access":"","density":0,"score":1.4},{"id":"site-2544","name":"Woodmont Park Courts","lat":36.1188969,"lng":-86.8349926,"city":"Nashville, TN","source":"osm","numCourts":1,"lit":false,"indoor":false,"access":"","density":0,"score":1.4},{"id":"site-2560","name":"Basketball Court","lat":35.9957161,"lng":-86.7877478,"city":"Nashville, TN","source":"osm","numCourts":1,"lit":false,"indoor":false,"access":"","density":0,"score":0.8},{"id":"site-2590","name":"Basketball Court","lat":36.2438459,"lng":-86.5848721,"city":"Nashville, TN","source":"osm","numCourts":1,"lit":false,"indoor":false,"access":"","density":0,"score":0.8},{"id":"site-2632","name":"Bissonet Plaza Elementary School Courts","lat":30.01143055,"lng":-90.21876259999999,"city":"New Orleans, LA","source":"osm","numCourts":2,"lit":false,"indoor":false,"access":"","density":1,"score":1.8},{"id":"site-2695","name":"A. L. Davis Playground Courts","lat":29.9383477,"lng":-90.0901608,"city":"New Orleans, LA","source":"osm","numCourts":1,"lit":true,"indoor":false,"access":"","density":0,"score":1.6},{"id":"site-2663","name":"Saint Georges Episcopal School Courts","lat":29.9210556,"lng":-90.1011022,"city":"New Orleans, LA","source":"osm","numCourts":1,"lit":true,"indoor":false,"access":"yes","density":0,"score":1.6},{"id":"site-2657","name":"Abramson Science and Technology Charter School Courts","lat":30.0284419,"lng":-89.9727174,"city":"New Orleans, LA","source":"osm","numCourts":1,"lit":false,"indoor":false,"access":"","density":2,"score":1.5},{"id":"site-2667","name":"Alfred Bonnabel High School Courts","lat":30.00916895,"lng":-90.2263502,"city":"New Orleans, LA","source":"osm","numCourts":2,"lit":false,"indoor":false,"access":"","density":0,"score":1.5},{"id":"site-2662","name":"Andrew Jackson Elementary School Courts","lat":29.9514384,"lng":-89.9824101,"city":"New Orleans, LA","source":"osm","numCourts":2,"lit":false,"indoor":false,"access":"","density":0,"score":1.5},{"id":"site-2658","name":"Basketball Court","lat":30.0305798,"lng":-89.9720746,"city":"New Orleans, LA","source":"osm","numCourts":1,"lit":false,"indoor":false,"access":"","density":2,"score":1.5},{"id":"site-2665","name":"Benjamin Franklin High School Courts","lat":30.025185399999998,"lng":-90.0652689,"city":"New Orleans, LA","source":"osm","numCourts":2,"lit":false,"indoor":false,"access":"","density":0,"score":1.5},{"id":"site-2671","name":"Sarah Towles Reed High School Courts","lat":30.0408743,"lng":-89.93238625000001,"city":"New Orleans, LA","source":"osm","numCourts":2,"lit":false,"indoor":false,"access":"","density":0,"score":1.5},{"id":"site-2638","name":"Alario Center","lat":29.9054604,"lng":-90.1627586,"city":"New Orleans, LA","source":"osm","numCourts":1,"lit":false,"indoor":false,"access":"","density":0,"score":1.4},{"id":"site-2669","name":"Fleur De Lis Park Courts","lat":30.0156425,"lng":-90.1164256,"city":"New Orleans, LA","source":"osm","numCourts":1,"lit":false,"indoor":false,"access":"","density":0,"score":1.4},{"id":"site-2694","name":"Hazel Park Hilda Knoff School Courts","lat":29.9458378,"lng":-90.2113701,"city":"New Orleans, LA","source":"osm","numCourts":1,"lit":false,"indoor":false,"access":"","density":0,"score":1.4},{"id":"site-2689","name":"Kenilworth Park Courts","lat":30.0349763,"lng":-90.0130748,"city":"New Orleans, LA","source":"osm","numCourts":1,"lit":false,"indoor":false,"access":"","density":0,"score":1.4},{"id":"site-2672","name":"Robert M. Conlin Gymnasium","lat":30.0034536,"lng":-90.058357,"city":"New Orleans, LA","source":"osm","numCourts":1,"lit":false,"indoor":false,"access":"","density":0,"score":1.4},{"id":"site-2643","name":"Smoothie King Center","lat":29.9490545,"lng":-90.0821722,"city":"New Orleans, LA","source":"osm","numCourts":1,"lit":false,"indoor":false,"access":"","density":0,"score":1.4},{"id":"site-2655","name":"St Roch Park Courts","lat":29.9772225,"lng":-90.0530908,"city":"New Orleans, LA","source":"osm","numCourts":1,"lit":false,"indoor":false,"access":"","density":0,"score":1.4},{"id":"site-2696","name":"Violet Park Courts","lat":29.8921185,"lng":-89.8982741,"city":"New Orleans, LA","source":"osm","numCourts":1,"lit":false,"indoor":false,"access":"","density":0,"score":1.4},{"id":"site-2631","name":"Woodland West Elementary School Courts","lat":29.8648268,"lng":-90.0534324,"city":"New Orleans, LA","source":"osm","numCourts":1,"lit":false,"indoor":false,"access":"","density":1,"score":1.1},{"id":"site-2679","name":"Woodland West Elementary School Courts","lat":29.865164,"lng":-90.0526382,"city":"New Orleans, LA","source":"osm","numCourts":1,"lit":false,"indoor":false,"access":"","density":1,"score":1.1},{"id":"site-26","name":"Tompkins Square Park Courts","lat":40.726760150000004,"lng":-73.9804977,"city":"Newark, NJ","source":"osm","numCourts":2,"lit":true,"indoor":false,"access":"yes","density":6,"score":4.9},{"id":"site-231","name":"Tompkins Square Park Courts","lat":40.727216,"lng":-73.9816804,"city":"Newark, NJ","source":"osm","numCourts":1,"lit":true,"indoor":false,"access":"yes","density":8,"score":4.2},{"id":"site-484","name":"Alfred E. Smith Recreation Center Courts","lat":40.7103804,"lng":-73.9978654,"city":"Newark, NJ","source":"osm","numCourts":1,"lit":true,"indoor":false,"access":"yes","density":5,"score":3.9},{"id":"site-49","name":"First Street Green Cultural Park Courts","lat":40.7229986,"lng":-73.9908977,"city":"Newark, NJ","source":"osm","numCourts":1,"lit":true,"indoor":false,"access":"","density":5,"score":3.9},{"id":"site-329","name":"Seward Park Courts","lat":40.714933200000004,"lng":-73.98857875,"city":"Newark, NJ","source":"osm","numCourts":2,"lit":false,"indoor":false,"access":"","density":5,"score":3.8},{"id":"site-483","name":"Alfred E. Smith Outdoor Basketball Court","lat":40.7122805,"lng":-73.9972808,"city":"Newark, NJ","source":"osm","numCourts":1,"lit":true,"indoor":false,"access":"yes","density":8,"score":3.6},{"id":"site-21","name":"McKinley Playground Courts","lat":40.7241651,"lng":-73.9859213,"city":"Newark, NJ","source":"osm","numCourts":1,"lit":true,"indoor":false,"access":"","density":6,"score":3.6},{"id":"site-163","name":"McLaughlin Park Courts","lat":40.69638195,"lng":-73.9862626,"city":"Newark, NJ","source":"osm","numCourts":2,"lit":true,"indoor":false,"access":"yes","density":2,"score":3.6},{"id":"site-327","name":"Public School MO94 Courts","lat":40.7210423,"lng":-73.9760344,"city":"Newark, NJ","source":"osm","numCourts":1,"lit":true,"indoor":false,"access":"","density":8,"score":3.6},{"id":"site-320","name":"Tanahey Playground Courts","lat":40.7102114,"lng":-73.9948715,"city":"Newark, NJ","source":"osm","numCourts":1,"lit":true,"indoor":false,"access":"yes","density":7,"score":3.6},{"id":"site-172","name":"Wald Playground Courts","lat":40.7198848,"lng":-73.9756809,"city":"Newark, NJ","source":"osm","numCourts":1,"lit":true,"indoor":false,"access":"","density":7,"score":3.6},{"id":"site-381","name":"Golconda Playground Courts","lat":40.6977646,"lng":-73.9817939,"city":"Newark, NJ","source":"osm","numCourts":2,"lit":false,"indoor":false,"access":"","density":6,"score":3.5},{"id":"site-216","name":"Lower East Side Playground Courts","lat":40.7294025,"lng":-73.98297529999999,"city":"Newark, NJ","source":"osm","numCourts":2,"lit":false,"indoor":false,"access":"","density":6,"score":3.5},{"id":"site-366","name":"Lower East Side Preparatory High School Courts","lat":40.71963345,"lng":-73.98629514999999,"city":"Newark, NJ","source":"osm","numCourts":2,"lit":false,"indoor":false,"access":"","density":6,"score":3.5},{"id":"site-539","name":"New Explorations into Science Technology and Math High School Courts","lat":40.71882545,"lng":-73.97986075,"city":"Newark, NJ","source":"osm","numCourts":2,"lit":false,"indoor":false,"access":"","density":12,"score":3.5},{"id":"site-249","name":"38th Street Skate Park Courts","lat":40.77845495,"lng":-74.0307569,"city":"Newark, NJ","source":"osm","numCourts":2,"lit":false,"indoor":false,"access":"","density":4,"score":3.4},{"id":"site-131","name":"Commodore John Barry Park Courts","lat":40.6979463,"lng":-73.9789182,"city":"Newark, NJ","source":"osm","numCourts":1,"lit":false,"indoor":false,"access":"","density":6,"score":3.4},{"id":"site-34","name":"Hamilton Fish Park Courts","lat":40.7193899,"lng":-73.9808793,"city":"Newark, NJ","source":"osm","numCourts":1,"lit":false,"indoor":false,"access":"","density":14,"score":3.4},{"id":"site-224","name":"Thomas A Edision Elementary School Courts","lat":40.75564555,"lng":-74.04202755,"city":"Newark, NJ","source":"osm","numCourts":2,"lit":true,"indoor":false,"access":"permissive","density":3,"score":3.3},{"id":"site-423","name":"Lyndhurst Municipal Park Courts","lat":40.81327425,"lng":-74.12257885,"city":"Newark, NJ","source":"osm","numCourts":2,"lit":false,"indoor":false,"access":"yes","density":1,"score":2.4},{"id":"site-196","name":"Wilson Park Courts","lat":40.635961,"lng":-74.2669917,"city":"Newark, NJ","source":"osm","numCourts":1,"lit":true,"indoor":false,"access":"","density":0,"score":2.2},{"id":"site-5","name":"Public School 58 Courts","lat":40.5826597,"lng":-74.1605675,"city":"Newark, NJ","source":"osm","numCourts":1,"lit":false,"indoor":false,"access":"","density":4,"score":2.1},{"id":"site-251","name":"Liberty Park Courts","lat":40.8613263,"lng":-74.2609246,"city":"Newark, NJ","source":"osm","numCourts":1,"lit":false,"indoor":false,"access":"","density":1,"score":1.7},{"id":"site-108","name":"Brennan Field Courts","lat":40.5977122,"lng":-74.2804003,"city":"Newark, NJ","source":"osm","numCourts":1,"lit":false,"indoor":false,"access":"","density":0,"score":0.8},{"id":"site-6645","name":"North Beach Clubhouse Courts","lat":37.802547399999995,"lng":-122.4117883,"city":"Oakland, CA","source":"osm","numCourts":2,"lit":true,"indoor":false,"access":"","density":5,"score":4},{"id":"site-6813","name":"Adam Rogers Park Playground Courts","lat":37.7311548,"lng":-122.3824597,"city":"Oakland, CA","source":"osm","numCourts":1,"lit":false,"indoor":false,"access":"","density":6,"score":3.4},{"id":"site-6809","name":"Shoreview Park Courts","lat":37.7315354,"lng":-122.3804875,"city":"Oakland, CA","source":"osm","numCourts":1,"lit":false,"indoor":false,"access":"","density":7,"score":3.4},{"id":"site-6905","name":"Dr. William L. Cobb Elementary School/Preschool Courts","lat":37.78789315,"lng":-122.4392307,"city":"Oakland, CA","source":"osm","numCourts":2,"lit":false,"indoor":false,"access":"","density":5,"score":3.2},{"id":"site-6856","name":"Gateway High School Courts","lat":37.7832461,"lng":-122.43684350000001,"city":"Oakland, CA","source":"osm","numCourts":2,"lit":false,"indoor":false,"access":"","density":5,"score":3.2},{"id":"site-6858","name":"Sanchez Elementary School Courts","lat":37.7635597,"lng":-122.42995716666667,"city":"Oakland, CA","source":"osm","numCourts":3,"lit":false,"indoor":false,"access":"","density":5,"score":3.2},{"id":"site-6611","name":"Strawberry Creek Park Courts","lat":37.86656935,"lng":-122.28615645,"city":"Oakland, CA","source":"osm","numCourts":2,"lit":true,"indoor":false,"access":"","density":1,"score":3.2},{"id":"site-6643","name":"Adam Rodgers Park Courts","lat":37.730844,"lng":-122.3839744,"city":"Oakland, CA","source":"osm","numCourts":1,"lit":false,"indoor":false,"access":"","density":5,"score":3.1},{"id":"site-6964","name":"Golden Gate & Steiner Mini Park Courts","lat":37.7808115,"lng":-122.4343995,"city":"Oakland, CA","source":"osm","numCourts":1,"lit":false,"indoor":false,"access":"","density":5,"score":3.1},{"id":"site-6606","name":"Laney College Gym","lat":37.7962081,"lng":-122.262382,"city":"Oakland, CA","source":"osm","numCourts":1,"lit":false,"indoor":false,"access":"","density":5,"score":3.1},{"id":"site-6727","name":"Mission Dolores Park Courts","lat":37.7610942,"lng":-122.427688,"city":"Oakland, CA","source":"osm","numCourts":1,"lit":false,"indoor":false,"access":"","density":5,"score":3.1},{"id":"site-6579","name":"Monterey - Colusa Park Courts","lat":37.8874465,"lng":-122.28082,"city":"Oakland, CA","source":"osm","numCourts":1,"lit":false,"indoor":false,"access":"","density":5,"score":3.1},{"id":"site-6571","name":"Ohlone Park Courts","lat":37.8722386,"lng":-122.2752853,"city":"Oakland, CA","source":"osm","numCourts":1,"lit":false,"indoor":false,"access":"","density":5,"score":3.1},{"id":"site-6608","name":"Live Oak Recreation Center Courts","lat":37.883454,"lng":-122.2692296,"city":"Oakland, CA","source":"osm","numCourts":1,"lit":true,"indoor":false,"access":"","density":2,"score":2.9},{"id":"site-6636","name":"Mission Creek Park Courts","lat":37.7718469,"lng":-122.3978146,"city":"Oakland, CA","source":"osm","numCourts":1,"lit":true,"indoor":false,"access":"yes","density":2,"score":2.9},{"id":"site-6569","name":"Basketball Court","lat":37.8792367,"lng":-122.2749272,"city":"Oakland, CA","source":"osm","numCourts":1,"lit":false,"indoor":false,"access":"","density":6,"score":2.8},{"id":"site-6570","name":"Basketball Court","lat":37.8773231,"lng":-122.2747472,"city":"Oakland, CA","source":"osm","numCourts":1,"lit":false,"indoor":false,"access":"","density":7,"score":2.8},{"id":"site-6587","name":"Basketball Court","lat":37.8852159,"lng":-122.2794159,"city":"Oakland, CA","source":"osm","numCourts":1,"lit":false,"indoor":false,"access":"","density":6,"score":2.8},{"id":"site-6590","name":"Virginia-McGee Totland Courts","lat":37.8761221,"lng":-122.2769107,"city":"Oakland, CA","source":"osm","numCourts":1,"lit":false,"indoor":false,"access":"","density":7,"score":2.8},{"id":"site-6675","name":"Arroyo Viejo Park Courts","lat":37.760931,"lng":-122.1745848,"city":"Oakland, CA","source":"osm","numCourts":1,"lit":false,"indoor":false,"access":"","density":2,"score":2.1},{"id":"site-6810","name":"Orinda Intermediate School Courts","lat":37.849975799999996,"lng":-122.14719679999999,"city":"Oakland, CA","source":"osm","numCourts":2,"lit":false,"indoor":false,"access":"","density":0,"score":1.5},{"id":"site-1976","name":"College Park Middle School Courts","lat":28.583996550000002,"lng":-81.39796365,"city":"Orlando, FL","source":"osm","numCourts":2,"lit":false,"indoor":false,"access":"","density":1,"score":2.4},{"id":"site-1928","name":"Deputy Brandon Coates Community Park Courts","lat":28.3746207,"lng":-81.413578,"city":"Orlando, FL","source":"osm","numCourts":1,"lit":true,"indoor":false,"access":"","density":0,"score":2.2},{"id":"site-2043","name":"Engelwood Elementary School Courts","lat":28.531268,"lng":-81.30209155,"city":"Orlando, FL","source":"osm","numCourts":2,"lit":false,"indoor":false,"access":"","density":2,"score":2.2},{"id":"site-1945","name":"Jones High School Basketball Courts Courts","lat":28.5334431,"lng":-81.4034853,"city":"Orlando, FL","source":"osm","numCourts":2,"lit":false,"indoor":false,"access":"","density":2,"score":2.2},{"id":"site-1962","name":"Candyland Park Courts","lat":28.7095847,"lng":-81.33673245,"city":"Orlando, FL","source":"osm","numCourts":2,"lit":false,"indoor":false,"access":"","density":0,"score":2.1},{"id":"site-1896","name":"Colonial High School 9th Grade Center Courts","lat":28.5553321,"lng":-81.2844738,"city":"Orlando, FL","source":"osm","numCourts":1,"lit":false,"indoor":false,"access":"","density":2,"score":2.1},{"id":"site-1856","name":"Cypress Park Courts","lat":28.38480665,"lng":-81.35537769999999,"city":"Orlando, FL","source":"osm","numCourts":2,"lit":false,"indoor":false,"access":"","density":0,"score":2.1},{"id":"site-1929","name":"Engelwood Center Park Courts","lat":28.5289609,"lng":-81.3021006,"city":"Orlando, FL","source":"osm","numCourts":1,"lit":false,"indoor":false,"access":"","density":2,"score":2.1},{"id":"site-1898","name":"Maple Street Park Courts","lat":28.5617503,"lng":-81.58197705,"city":"Orlando, FL","source":"osm","numCourts":2,"lit":false,"indoor":false,"access":"","density":0,"score":2.1},{"id":"site-1925","name":"Sunrise Community Park Courts","lat":28.6525022,"lng":-81.25912925,"city":"Orlando, FL","source":"osm","numCourts":2,"lit":false,"indoor":false,"access":"","density":0,"score":2.1},{"id":"site-1954","name":"Union Park Elementary School Courts","lat":28.5673108,"lng":-81.2458523,"city":"Orlando, FL","source":"osm","numCourts":1,"lit":false,"indoor":false,"access":"","density":2,"score":2.1},{"id":"site-1821","name":"Wheatley Park Courts","lat":28.65554255,"lng":-81.5117278,"city":"Orlando, FL","source":"osm","numCourts":2,"lit":false,"indoor":false,"access":"","density":0,"score":2.1},{"id":"site-2028","name":"Boone School Basketball Courts Courts","lat":28.51435395,"lng":-81.36600615,"city":"Orlando, FL","source":"osm","numCourts":2,"lit":false,"indoor":false,"access":"","density":1,"score":1.8},{"id":"site-1819","name":"Legacy Middle School Courts","lat":28.544921549999998,"lng":-81.2203309,"city":"Orlando, FL","source":"osm","numCourts":2,"lit":false,"indoor":false,"access":"","density":1,"score":1.8},{"id":"site-2031","name":"Meadow Woods Middle School Courts","lat":28.37234945,"lng":-81.3437693,"city":"Orlando, FL","source":"osm","numCourts":2,"lit":false,"indoor":false,"access":"","density":1,"score":1.8},{"id":"site-1830","name":"George Barker Park Courts","lat":28.5297211,"lng":-81.4055913,"city":"Orlando, FL","source":"osm","numCourts":1,"lit":false,"indoor":false,"access":"","density":1,"score":1.7},{"id":"site-1812","name":"Meadow Woods Park Courts","lat":28.3735524,"lng":-81.345537,"city":"Orlando, FL","source":"osm","numCourts":1,"lit":false,"indoor":false,"access":"","density":1,"score":1.7},{"id":"site-1829","name":"Orange Center Elementary School Courts","lat":28.5344626,"lng":-81.4075432,"city":"Orlando, FL","source":"osm","numCourts":1,"lit":false,"indoor":false,"access":"","density":1,"score":1.7},{"id":"site-1828","name":"Waterford Lakes Recreational Park Courts","lat":28.54085,"lng":-81.2000935,"city":"Orlando, FL","source":"osm","numCourts":1,"lit":false,"indoor":false,"access":"","density":1,"score":1.7},{"id":"site-1827","name":"Stoneybrook Fitness Center Courts","lat":28.5194643,"lng":-81.1758708,"city":"Orlando, FL","source":"osm","numCourts":1,"lit":false,"indoor":false,"access":"","density":0,"score":1.4},{"id":"site-1818","name":"Addition Financial Arena","lat":28.607518,"lng":-81.1971918,"city":"Orlando, FL","source":"osm","numCourts":1,"lit":false,"indoor":false,"access":"","density":1,"score":1.1},{"id":"site-1484","name":"Pittsburgh Gifted Center Courts","lat":40.4478129,"lng":-79.9819836,"city":"Pittsburgh, PA","source":"osm","numCourts":1,"lit":false,"indoor":false,"access":"","density":3,"score":2.4},{"id":"site-1412","name":"Scott Park Courts","lat":40.38478105,"lng":-80.08559174999999,"city":"Pittsburgh, PA","source":"osm","numCourts":2,"lit":false,"indoor":false,"access":"","density":1,"score":2.4},{"id":"site-1506","name":"Baker Park Courts","lat":40.3361458,"lng":-80.0980413,"city":"Pittsburgh, PA","source":"osm","numCourts":1,"lit":true,"indoor":false,"access":"","density":0,"score":2.2},{"id":"site-1379","name":"Mt. Lebanon Park Courts","lat":40.37499,"lng":-80.0545372,"city":"Pittsburgh, PA","source":"osm","numCourts":1,"lit":true,"indoor":false,"access":"","density":0,"score":2.2},{"id":"site-1503","name":"August Wilson Park Courts","lat":40.4467495,"lng":-79.9857145,"city":"Pittsburgh, PA","source":"osm","numCourts":1,"lit":false,"indoor":false,"access":"","density":2,"score":2.1},{"id":"site-1497","name":"Banksville Park Courts","lat":40.414838,"lng":-80.0386817,"city":"Pittsburgh, PA","source":"osm","numCourts":1,"lit":false,"indoor":false,"access":"","density":2,"score":2.1},{"id":"site-1377","name":"Elevate Hoops Academy","lat":40.4939787,"lng":-79.9140869,"city":"Pittsburgh, PA","source":"osm","numCourts":1,"lit":false,"indoor":true,"access":"customers","density":2,"score":2.1},{"id":"site-1430","name":"Hampton Community Park Courts","lat":40.58446,"lng":-79.93803704999999,"city":"Pittsburgh, PA","source":"osm","numCourts":2,"lit":false,"indoor":false,"access":"","density":0,"score":2.1},{"id":"site-1512","name":"Larsen Park Courts","lat":40.3639376,"lng":-80.0762293,"city":"Pittsburgh, PA","source":"osm","numCourts":1,"lit":false,"indoor":false,"access":"","density":2,"score":2.1},{"id":"site-1594","name":"Miner's Park Courts","lat":40.3221249,"lng":-80.03747785,"city":"Pittsburgh, PA","source":"osm","numCourts":2,"lit":false,"indoor":false,"access":"","density":0,"score":2.1},{"id":"site-1425","name":"Richard E. Powell Park Courts","lat":40.5232574,"lng":-80.0341655,"city":"Pittsburgh, PA","source":"osm","numCourts":1,"lit":false,"indoor":false,"access":"","density":2,"score":2.1},{"id":"site-1426","name":"Seville Park Courts","lat":40.49819045,"lng":-80.04209875000001,"city":"Pittsburgh, PA","source":"osm","numCourts":2,"lit":false,"indoor":false,"access":"","density":0,"score":2.1},{"id":"site-1584","name":"Vincennes Park Courts","lat":40.4017178,"lng":-80.1860562,"city":"Pittsburgh, PA","source":"osm","numCourts":1,"lit":false,"indoor":false,"access":"","density":2,"score":2.1},{"id":"site-1462","name":"Williamsburg Park Courts","lat":40.3838085,"lng":-80.033361,"city":"Pittsburgh, PA","source":"osm","numCourts":1,"lit":false,"indoor":false,"access":"","density":2,"score":2.1},{"id":"site-1375","name":"Monsigner William A Kerr Fitness and Sports Center Courts","lat":40.5691127,"lng":-80.011636,"city":"Pittsburgh, PA","source":"osm","numCourts":1,"lit":false,"indoor":true,"access":"","density":0,"score":2},{"id":"site-1374","name":"West View Elementary Playground","lat":40.5212901,"lng":-80.0318774,"city":"Pittsburgh, PA","source":"osm","numCourts":1,"lit":false,"indoor":false,"access":"","density":3,"score":1.8},{"id":"site-1407","name":"West View Elementary School Courts","lat":40.5206518,"lng":-80.032837,"city":"Pittsburgh, PA","source":"osm","numCourts":1,"lit":false,"indoor":false,"access":"","density":3,"score":1.8},{"id":"site-1381","name":"Garland Parklet Courts","lat":40.464101,"lng":-79.9278145,"city":"Pittsburgh, PA","source":"osm","numCourts":1,"lit":false,"indoor":false,"access":"","density":1,"score":1.7},{"id":"site-1373","name":"Memorial Park Sports Court","lat":40.3979036,"lng":-79.8199639,"city":"Pittsburgh, PA","source":"osm","numCourts":1,"lit":false,"indoor":false,"access":"","density":1,"score":1.7},{"id":"site-1617","name":"Hawthorne Village Basketball Court","lat":40.4441838,"lng":-80.2082082,"city":"Pittsburgh, PA","source":"osm","numCourts":1,"lit":false,"indoor":false,"access":"yes","density":0,"score":0.8},{"id":"site-2392","name":"Carmichael Gymnasium Courts","lat":35.7836233,"lng":-78.6745322,"city":"Raleigh, NC","source":"osm","numCourts":1,"lit":true,"indoor":false,"access":"customers","density":1,"score":2.5},{"id":"site-2483","name":"Laurel Hills Park Courts","lat":35.83100455,"lng":-78.6983787,"city":"Raleigh, NC","source":"osm","numCourts":2,"lit":false,"indoor":false,"access":"","density":1,"score":2.4},{"id":"site-2391","name":"North Cary Park Courts","lat":35.8215575,"lng":-78.7888527,"city":"Raleigh, NC","source":"osm","numCourts":1,"lit":true,"indoor":false,"access":"","density":0,"score":2.2},{"id":"site-2455","name":"Worthdale Park Courts","lat":35.7630591,"lng":-78.5868187,"city":"Raleigh, NC","source":"osm","numCourts":1,"lit":true,"indoor":false,"access":"","density":0,"score":2.2},